{"meta": {"source": "https://download.geonames.org/export/dump/US.zip", "feature_class": "P", "feature_code_filter": "PPL*", "excluded_admin1": ["AK", "AS", "GU", "HI", "MP", "PR", "VI"], "min_separation_km": 100.0, "count": 562}, "points": [{"geonameid": 5128581, "name": "New York City", "asciiname": "New York City", "lat": 40.71427, "lon": -74.00597, "feature_code": "PPL", "state": "NY", "county": "", "population": 8804190, "timezone": "America/New_York"}, {"geonameid": 5368361, "name": "Los Angeles", "asciiname": "Los Angeles", "lat": 34.05223, "lon": -118.24368, "feature_code": "PPLA2", "state": "CA", "county": "037", "population": 3820914, "timezone": "America/Los_Angeles"}, {"geonameid": 4887398, "name": "Chicago", "asciiname": "Chicago", "lat": 41.85003, "lon": -87.65005, "feature_code": "PPLA2", "state": "IL", "county": "031", "population": 2664452, "timezone": "America/Chicago"}, {"geonameid": 4699066, "name": "Houston", "asciiname": "Houston", "lat": 29.76328, "lon": -95.36327, "feature_code": "PPLA2", "state": "TX", "county": "201", "population": 2314157, "timezone": "America/Chicago"}, {"geonameid": 5308655, "name": "Phoenix", "asciiname": "Phoenix", "lat": 33.44838, "lon": -112.07404, "feature_code": "PPLA", "state": "AZ", "county": "013", "population": 1650070, "timezone": "America/Phoenix"}, {"geonameid": 4560349, "name": "Philadelphia", "asciiname": "Philadelphia", "lat": 39.95238, "lon": -75.16362, "feature_code": "PPLA2", "state": "PA", "county": "101", "population": 1573916, "timezone": "America/New_York"}, {"geonameid": 4726206, "name": "San Antonio", "asciiname": "San Antonio", "lat": 29.42412, "lon": -98.49363, "feature_code": "PPLA2", "state": "TX", "county": "029", "population": 1526656, "timezone": "America/Chicago"}, {"geonameid": 5391811, "name": "San Diego", "asciiname": "San Diego", "lat": 32.71571, "lon": -117.16472, "feature_code": "PPLA2", "state": "CA", "county": "073", "population": 1404452, "timezone": "America/Los_Angeles"}, {"geonameid": 4684888, "name": "Dallas", "asciiname": "Dallas", "lat": 32.78306, "lon": -96.80667, "feature_code": "PPLA2", "state": "TX", "county": "113", "population": 1326087, "timezone": "America/Chicago"}, {"geonameid": 4160021, "name": "Jacksonville", "asciiname": "Jacksonville", "lat": 30.33218, "lon": -81.65565, "feature_code": "PPLA2", "state": "FL", "county": "031", "population": 1009833, "timezone": "America/New_York"}, {"geonameid": 5392171, "name": "San Jose", "asciiname": "San Jose", "lat": 37.33939, "lon": -121.89496, "feature_code": "PPLA2", "state": "CA", "county": "085", "population": 997368, "timezone": "America/Los_Angeles"}, {"geonameid": 4671654, "name": "Austin", "asciiname": "Austin", "lat": 30.26715, "lon": -97.74306, "feature_code": "PPLA", "state": "TX", "county": "453", "population": 974447, "timezone": "America/Chicago"}, {"geonameid": 4509177, "name": "Columbus", "asciiname": "Columbus", "lat": 39.96118, "lon": -82.99879, "feature_code": "PPLA", "state": "OH", "county": "049", "population": 913175, "timezone": "America/New_York"}, {"geonameid": 4460243, "name": "Charlotte", "asciiname": "Charlotte", "lat": 35.22709, "lon": -80.84313, "feature_code": "PPLA2", "state": "NC", "county": "119", "population": 911311, "timezone": "America/New_York"}, {"geonameid": 4259418, "name": "Indianapolis", "asciiname": "Indianapolis", "lat": 39.76838, "lon": -86.15804, "feature_code": "PPLA", "state": "IN", "county": "097", "population": 887642, "timezone": "America/Indiana/Indianapolis"}, {"geonameid": 5809844, "name": "Seattle", "asciiname": "Seattle", "lat": 47.60621, "lon": -122.33207, "feature_code": "PPLA2", "state": "WA", "county": "033", "population": 780995, "timezone": "America/Los_Angeles"}, {"geonameid": 5419384, "name": "Denver", "asciiname": "Denver", "lat": 39.73915, "lon": -104.9847, "feature_code": "PPLA", "state": "CO", "county": "031", "population": 729019, "timezone": "America/Denver"}, {"geonameid": 4140963, "name": "Washington", "asciiname": "Washington", "lat": 38.89511, "lon": -77.03637, "feature_code": "PPLC", "state": "DC", "county": "001", "population": 689545, "timezone": "America/New_York"}, {"geonameid": 4644585, "name": "Nashville", "asciiname": "Nashville", "lat": 36.16589, "lon": -86.78444, "feature_code": "PPLA", "state": "TN", "county": "037", "population": 689447, "timezone": "America/Chicago"}, {"geonameid": 4544349, "name": "Oklahoma City", "asciiname": "Oklahoma City", "lat": 35.46756, "lon": -97.51643, "feature_code": "PPLA", "state": "OK", "county": "109", "population": 681054, "timezone": "America/Chicago"}, {"geonameid": 5520993, "name": "El Paso", "asciiname": "El Paso", "lat": 31.75872, "lon": -106.48693, "feature_code": "PPLA2", "state": "TX", "county": "141", "population": 678815, "timezone": "America/Denver"}, {"geonameid": 4930956, "name": "Boston", "asciiname": "Boston", "lat": 42.35843, "lon": -71.05977, "feature_code": "PPLA", "state": "MA", "county": "025", "population": 653833, "timezone": "America/New_York"}, {"geonameid": 5746545, "name": "Portland", "asciiname": "Portland", "lat": 45.52345, "lon": -122.67621, "feature_code": "PPLA2", "state": "OR", "county": "051", "population": 652503, "timezone": "America/Los_Angeles"}, {"geonameid": 4990729, "name": "Detroit", "asciiname": "Detroit", "lat": 42.33143, "lon": -83.04575, "feature_code": "PPLA2", "state": "MI", "county": "163", "population": 645705, "timezone": "America/Detroit"}, {"geonameid": 5506956, "name": "Las Vegas", "asciiname": "Las Vegas", "lat": 36.17497, "lon": -115.13722, "feature_code": "PPLA2", "state": "NV", "county": "003", "population": 641903, "timezone": "America/Los_Angeles"}, {"geonameid": 4645421, "name": "New South Memphis", "asciiname": "New South Memphis", "lat": 35.08676, "lon": -90.05676, "feature_code": "PPLX", "state": "TN", "county": "157", "population": 641608, "timezone": "America/Chicago"}, {"geonameid": 4299276, "name": "Louisville", "asciiname": "Louisville", "lat": 38.25424, "lon": -85.75941, "feature_code": "PPLA2", "state": "KY", "county": "111", "population": 624444, "timezone": "America/Kentucky/Louisville"}, {"geonameid": 5454711, "name": "Albuquerque", "asciiname": "Albuquerque", "lat": 35.08449, "lon": -106.65114, "feature_code": "PPLA2", "state": "NM", "county": "001", "population": 564559, "timezone": "America/Denver"}, {"geonameid": 5263045, "name": "Milwaukee", "asciiname": "Milwaukee", "lat": 43.0389, "lon": -87.90647, "feature_code": "PPLA2", "state": "WI", "county": "079", "population": 563531, "timezone": "America/Chicago"}, {"geonameid": 5318313, "name": "Tucson", "asciiname": "Tucson", "lat": 32.22174, "lon": -110.92648, "feature_code": "PPLA2", "state": "AZ", "county": "019", "population": 542629, "timezone": "America/Phoenix"}, {"geonameid": 5350937, "name": "Fresno", "asciiname": "Fresno", "lat": 36.74773, "lon": -119.77237, "feature_code": "PPLA2", "state": "CA", "county": "019", "population": 542107, "timezone": "America/Los_Angeles"}, {"geonameid": 5389489, "name": "Sacramento", "asciiname": "Sacramento", "lat": 38.58157, "lon": -121.4944, "feature_code": "PPLA", "state": "CA", "county": "067", "population": 524943, "timezone": "America/Los_Angeles"}, {"geonameid": 4180439, "name": "Atlanta", "asciiname": "Atlanta", "lat": 33.749, "lon": -84.38798, "feature_code": "PPLA", "state": "GA", "county": "121", "population": 510823, "timezone": "America/New_York"}, {"geonameid": 4164138, "name": "Miami", "asciiname": "Miami", "lat": 25.77427, "lon": -80.19366, "feature_code": "PPLA2", "state": "FL", "county": "086", "population": 487014, "timezone": "America/New_York"}, {"geonameid": 5074472, "name": "Omaha", "asciiname": "Omaha", "lat": 41.25626, "lon": -95.94043, "feature_code": "PPLA2", "state": "NE", "county": "055", "population": 486051, "timezone": "America/Chicago"}, {"geonameid": 4487042, "name": "Raleigh", "asciiname": "Raleigh", "lat": 35.7721, "lon": -78.63861, "feature_code": "PPLA", "state": "NC", "county": "183", "population": 482295, "timezone": "America/New_York"}, {"geonameid": 4393217, "name": "Kansas City", "asciiname": "Kansas City", "lat": 39.09973, "lon": -94.57857, "feature_code": "PPL", "state": "MO", "county": "095", "population": 475378, "timezone": "America/Chicago"}, {"geonameid": 5417598, "name": "Colorado Springs", "asciiname": "Colorado Springs", "lat": 38.83388, "lon": -104.82136, "feature_code": "PPLA2", "state": "CO", "county": "041", "population": 456568, "timezone": "America/Denver"}, {"geonameid": 4791259, "name": "Virginia Beach", "asciiname": "Virginia Beach", "lat": 36.85293, "lon": -75.97799, "feature_code": "PPLA2", "state": "VA", "county": "810", "population": 454808, "timezone": "America/New_York"}, {"geonameid": 4174757, "name": "Tampa", "asciiname": "Tampa", "lat": 27.94752, "lon": -82.45843, "feature_code": "PPLA2", "state": "FL", "county": "057", "population": 414547, "timezone": "America/New_York"}, {"geonameid": 4553433, "name": "Tulsa", "asciiname": "Tulsa", "lat": 36.15398, "lon": -95.99277, "feature_code": "PPLA2", "state": "OK", "county": "143", "population": 413066, "timezone": "America/Chicago"}, {"geonameid": 5037649, "name": "Minneapolis", "asciiname": "Minneapolis", "lat": 44.97997, "lon": -93.26384, "feature_code": "PPLA2", "state": "MN", "county": "053", "population": 410939, "timezone": "America/Chicago"}, {"geonameid": 4281730, "name": "Wichita", "asciiname": "Wichita", "lat": 37.69224, "lon": -97.33754, "feature_code": "PPLA2", "state": "KS", "county": "173", "population": 396119, "timezone": "America/Chicago"}, {"geonameid": 5325738, "name": "Bakersfield", "asciiname": "Bakersfield", "lat": 35.37329, "lon": -119.01871, "feature_code": "PPLA2", "state": "CA", "county": "029", "population": 373640, "timezone": "America/Los_Angeles"}, {"geonameid": 5150529, "name": "Cleveland", "asciiname": "Cleveland", "lat": 41.4995, "lon": -81.69541, "feature_code": "PPLA2", "state": "OH", "county": "035", "population": 365379, "timezone": "America/New_York"}, {"geonameid": 4335045, "name": "New Orleans", "asciiname": "New Orleans", "lat": 29.95465, "lon": -90.07507, "feature_code": "PPLA2", "state": "LA", "county": "071", "population": 362701, "timezone": "America/Chicago"}, {"geonameid": 4167147, "name": "Orlando", "asciiname": "Orlando", "lat": 28.53834, "lon": -81.37924, "feature_code": "PPLA2", "state": "FL", "county": "095", "population": 334854, "timezone": "America/New_York"}, {"geonameid": 4297983, "name": "Lexington", "asciiname": "Lexington", "lat": 37.98869, "lon": -84.47772, "feature_code": "PPLA2", "state": "KY", "county": "067", "population": 320347, "timezone": "America/New_York"}, {"geonameid": 4683416, "name": "Corpus Christi", "asciiname": "Corpus Christi", "lat": 27.80058, "lon": -97.39638, "feature_code": "PPLA2", "state": "TX", "county": "355", "population": 316239, "timezone": "America/Chicago"}, {"geonameid": 4508722, "name": "Cincinnati", "asciiname": "Cincinnati", "lat": 39.12711, "lon": -84.51439, "feature_code": "PPLA2", "state": "OH", "county": "061", "population": 311097, "timezone": "America/New_York"}, {"geonameid": 5206379, "name": "Pittsburgh", "asciiname": "Pittsburgh", "lat": 40.44062, "lon": -79.99589, "feature_code": "PPLA2", "state": "PA", "county": "003", "population": 304391, "timezone": "America/New_York"}, {"geonameid": 4300488, "name": "Meads", "asciiname": "Meads", "lat": 38.41258, "lon": -82.70905, "feature_code": "PPL", "state": "KY", "county": "019", "population": 288649, "timezone": "America/New_York"}, {"geonameid": 4469146, "name": "Greensboro", "asciiname": "Greensboro", "lat": 36.07264, "lon": -79.79198, "feature_code": "PPL", "state": "NC", "county": "081", "population": 285342, "timezone": "America/New_York"}, {"geonameid": 5261457, "name": "Madison", "asciiname": "Madison", "lat": 43.07305, "lon": -89.40123, "feature_code": "PPLA", "state": "WI", "county": "025", "population": 280305, "timezone": "America/Chicago"}, {"geonameid": 4407066, "name": "St. Louis", "asciiname": "St. Louis", "lat": 38.62727, "lon": -90.19789, "feature_code": "PPLA2", "state": "MO", "county": "510", "population": 279695, "timezone": "America/Chicago"}, {"geonameid": 5511077, "name": "Reno", "asciiname": "Reno", "lat": 39.52963, "lon": -119.8138, "feature_code": "PPLA2", "state": "NV", "county": "031", "population": 264165, "timezone": "America/Los_Angeles"}, {"geonameid": 4920423, "name": "Fort Wayne", "asciiname": "Fort Wayne", "lat": 41.1306, "lon": -85.12886, "feature_code": "PPLA2", "state": "IN", "county": "003", "population": 260326, "timezone": "America/Indiana/Indianapolis"}, {"geonameid": 5110629, "name": "Buffalo", "asciiname": "Buffalo", "lat": 42.88645, "lon": -78.87837, "feature_code": "PPLA2", "state": "NY", "county": "029", "population": 258071, "timezone": "America/New_York"}, {"geonameid": 4705349, "name": "Laredo", "asciiname": "Laredo", "lat": 27.50641, "lon": -99.50754, "feature_code": "PPLA2", "state": "TX", "county": "479", "population": 256153, "timezone": "America/Chicago"}, {"geonameid": 5525577, "name": "Lubbock", "asciiname": "Lubbock", "lat": 33.57786, "lon": -101.85517, "feature_code": "PPLA2", "state": "TX", "county": "303", "population": 249042, "timezone": "America/Chicago"}, {"geonameid": 7289169, "name": "Tri-Cities", "asciiname": "Tri-Cities", "lat": 46.2454, "lon": -119.19617, "feature_code": "PPLS", "state": "WA", "county": "021", "population": 244036, "timezone": "America/Los_Angeles"}, {"geonameid": 5586437, "name": "Boise", "asciiname": "Boise", "lat": 43.6135, "lon": -116.20345, "feature_code": "PPLA", "state": "ID", "county": "001", "population": 235684, "timezone": "America/Boise"}, {"geonameid": 5811696, "name": "Spokane", "asciiname": "Spokane", "lat": 47.65966, "lon": -117.42908, "feature_code": "PPLA2", "state": "WA", "county": "063", "population": 229447, "timezone": "America/Los_Angeles"}, {"geonameid": 4315588, "name": "Baton Rouge", "asciiname": "Baton Rouge", "lat": 30.44332, "lon": -91.18747, "feature_code": "PPLA", "state": "LA", "county": "033", "population": 227470, "timezone": "America/Chicago"}, {"geonameid": 4781708, "name": "Richmond", "asciiname": "Richmond", "lat": 37.55376, "lon": -77.46026, "feature_code": "PPLA", "state": "VA", "county": "760", "population": 226610, "timezone": "America/New_York"}, {"geonameid": 5780993, "name": "Salt Lake City", "asciiname": "Salt Lake City", "lat": 40.76078, "lon": -111.89105, "feature_code": "PPLA", "state": "UT", "county": "035", "population": 215548, "timezone": "America/Denver"}, {"geonameid": 4068590, "name": "Huntsville", "asciiname": "Huntsville", "lat": 34.7304, "lon": -86.58594, "feature_code": "PPLA2", "state": "AL", "county": "089", "population": 215006, "timezone": "America/Chicago"}, {"geonameid": 4853828, "name": "Des Moines", "asciiname": "Des Moines", "lat": 41.60054, "lon": -93.60911, "feature_code": "PPLA", "state": "IA", "county": "153", "population": 214133, "timezone": "America/Chicago"}, {"geonameid": 5134086, "name": "Rochester", "asciiname": "Rochester", "lat": 43.15478, "lon": -77.61556, "feature_code": "PPLA2", "state": "NY", "county": "055", "population": 209802, "timezone": "America/New_York"}, {"geonameid": 4188985, "name": "Columbus", "asciiname": "Columbus", "lat": 32.46098, "lon": -84.98771, "feature_code": "PPLA2", "state": "GA", "county": "215", "population": 206922, "timezone": "America/New_York"}, {"geonameid": 4119403, "name": "Little Rock", "asciiname": "Little Rock", "lat": 34.74648, "lon": -92.28959, "feature_code": "PPLA", "state": "AR", "county": "119", "population": 202591, "timezone": "America/Chicago"}, {"geonameid": 4174715, "name": "Tallahassee", "asciiname": "Tallahassee", "lat": 30.43826, "lon": -84.28073, "feature_code": "PPLA", "state": "FL", "county": "073", "population": 201731, "timezone": "America/New_York"}, {"geonameid": 5516233, "name": "Amarillo", "asciiname": "Amarillo", "lat": 35.222, "lon": -101.8313, "feature_code": "PPLA2", "state": "TX", "county": "375", "population": 198645, "timezone": "America/Chicago"}, {"geonameid": 4049979, "name": "Birmingham", "asciiname": "Birmingham", "lat": 33.52066, "lon": -86.80249, "feature_code": "PPLA2", "state": "AL", "county": "073", "population": 196357, "timezone": "America/Chicago"}, {"geonameid": 4076784, "name": "Montgomery", "asciiname": "Montgomery", "lat": 32.36681, "lon": -86.29997, "feature_code": "PPLA", "state": "AL", "county": "101", "population": 195287, "timezone": "America/Chicago"}, {"geonameid": 4994358, "name": "Grand Rapids", "asciiname": "Grand Rapids", "lat": 42.96336, "lon": -85.66809, "feature_code": "PPLA2", "state": "MI", "county": "081", "population": 195097, "timezone": "America/Detroit"}, {"geonameid": 4634946, "name": "Knoxville", "asciiname": "Knoxville", "lat": 35.96064, "lon": -83.92074, "feature_code": "PPLA2", "state": "TN", "county": "093", "population": 190740, "timezone": "America/New_York"}, {"geonameid": 4341513, "name": "Shreveport", "asciiname": "Shreveport", "lat": 32.52515, "lon": -93.75018, "feature_code": "PPLA2", "state": "LA", "county": "017", "population": 187593, "timezone": "America/Chicago"}, {"geonameid": 4676740, "name": "Brownsville", "asciiname": "Brownsville", "lat": 25.90175, "lon": -97.49748, "feature_code": "PPLA2", "state": "TX", "county": "061", "population": 186738, "timezone": "America/Chicago"}, {"geonameid": 4076598, "name": "Mobile", "asciiname": "Mobile", "lat": 30.69436, "lon": -88.04305, "feature_code": "PPLA2", "state": "AL", "county": "097", "population": 183289, "timezone": "America/Chicago"}, {"geonameid": 4612862, "name": "Chattanooga", "asciiname": "Chattanooga", "lat": 35.04563, "lon": -85.30968, "feature_code": "PPLA2", "state": "TN", "county": "065", "population": 181099, "timezone": "America/New_York"}, {"geonameid": 5393287, "name": "Santa Rosa", "asciiname": "Santa Rosa", "lat": 38.44047, "lon": -122.71443, "feature_code": "PPLA2", "state": "CA", "county": "097", "population": 178127, "timezone": "America/Los_Angeles"}, {"geonameid": 5725846, "name": "Eugene", "asciiname": "Eugene", "lat": 44.05207, "lon": -123.08675, "feature_code": "PPLA2", "state": "OR", "county": "039", "population": 176654, "timezone": "America/Los_Angeles"}, {"geonameid": 4149962, "name": "Cape Coral", "asciiname": "Cape Coral", "lat": 26.56285, "lon": -81.94953, "feature_code": "PPL", "state": "FL", "county": "071", "population": 175229, "timezone": "America/New_York"}, {"geonameid": 5231851, "name": "Sioux Falls", "asciiname": "Sioux Falls", "lat": 43.54369, "lon": -96.72796, "feature_code": "PPLA2", "state": "SD", "county": "099", "population": 171544, "timezone": "America/Chicago"}, {"geonameid": 4409896, "name": "Springfield", "asciiname": "Springfield", "lat": 37.21533, "lon": -93.29824, "feature_code": "PPLA2", "state": "MO", "county": "077", "population": 170188, "timezone": "America/Chicago"}, {"geonameid": 4169171, "name": "Port Saint Lucie", "asciiname": "Port Saint Lucie", "lat": 27.29393, "lon": -80.35033, "feature_code": "PPL", "state": "FL", "county": "111", "population": 164603, "timezone": "America/New_York"}, {"geonameid": 4951788, "name": "Springfield", "asciiname": "Springfield", "lat": 42.10148, "lon": -72.58981, "feature_code": "PPL", "state": "MA", "county": "013", "population": 154341, "timezone": "America/New_York"}, {"geonameid": 4431410, "name": "Jackson", "asciiname": "Jackson", "lat": 32.29876, "lon": -90.18481, "feature_code": "PPLA", "state": "MS", "county": "049", "population": 153701, "timezone": "America/Chicago"}, {"geonameid": 4221552, "name": "Savannah", "asciiname": "Savannah", "lat": 32.08354, "lon": -81.09983, "feature_code": "PPLA2", "state": "GA", "county": "051", "population": 147780, "timezone": "America/New_York"}, {"geonameid": 5140405, "name": "Syracuse", "asciiname": "Syracuse", "lat": 43.04812, "lon": -76.14742, "feature_code": "PPLA2", "state": "NY", "county": "067", "population": 144142, "timezone": "America/New_York"}, {"geonameid": 4575352, "name": "Columbia", "asciiname": "Columbia", "lat": 34.00071, "lon": -81.03481, "feature_code": "PPLA", "state": "SC", "county": "079", "population": 142416, "timezone": "America/New_York"}, {"geonameid": 4574324, "name": "Charleston", "asciiname": "Charleston", "lat": 32.77632, "lon": -79.93275, "feature_code": "PPLA2", "state": "SC", "county": "019", "population": 132609, "timezone": "America/New_York"}, {"geonameid": 5526337, "name": "Midland", "asciiname": "Midland", "lat": 31.99735, "lon": -102.07791, "feature_code": "PPLA2", "state": "TX", "county": "329", "population": 132524, "timezone": "America/Chicago"}, {"geonameid": 4739526, "name": "Waco", "asciiname": "Waco", "lat": 31.54933, "lon": -97.14667, "feature_code": "PPLA2", "state": "TX", "county": "309", "population": 132356, "timezone": "America/Chicago"}, {"geonameid": 4850751, "name": "Cedar Rapids", "asciiname": "Cedar Rapids", "lat": 42.00833, "lon": -91.64407, "feature_code": "PPLA2", "state": "IA", "county": "113", "population": 130405, "timezone": "America/Chicago"}, {"geonameid": 4381982, "name": "Columbia", "asciiname": "Columbia", "lat": 38.95171, "lon": -92.33407, "feature_code": "PPLA2", "state": "MO", "county": "019", "population": 129330, "timezone": "America/Chicago"}, {"geonameid": 4280539, "name": "Topeka", "asciiname": "Topeka", "lat": 39.04833, "lon": -95.67804, "feature_code": "PPLA", "state": "KS", "county": "177", "population": 125963, "timezone": "America/Chicago"}, {"geonameid": 4669635, "name": "Abilene", "asciiname": "Abilene", "lat": 32.44874, "lon": -99.73314, "feature_code": "PPLA2", "state": "TX", "county": "441", "population": 125182, "timezone": "America/Chicago"}, {"geonameid": 5406222, "name": "Victorville", "asciiname": "Victorville", "lat": 34.53611, "lon": -117.29116, "feature_code": "PPL", "state": "CA", "county": "071", "population": 122225, "timezone": "America/Los_Angeles"}, {"geonameid": 5336269, "name": "Chico", "asciiname": "Chico", "lat": 39.72849, "lon": -121.83748, "feature_code": "PPL", "state": "CA", "county": "007", "population": 121345, "timezone": "America/Los_Angeles"}, {"geonameid": 4257227, "name": "Evansville", "asciiname": "Evansville", "lat": 37.97476, "lon": -87.55585, "feature_code": "PPLA2", "state": "IN", "county": "163", "population": 119943, "timezone": "America/Chicago"}, {"geonameid": 5059163, "name": "Fargo", "asciiname": "Fargo", "lat": 46.87719, "lon": -96.7898, "feature_code": "PPLA2", "state": "ND", "county": "017", "population": 118523, "timezone": "America/Chicago"}, {"geonameid": 5640350, "name": "Billings", "asciiname": "Billings", "lat": 45.78329, "lon": -108.50069, "feature_code": "PPLA2", "state": "MT", "county": "111", "population": 117116, "timezone": "America/Denver"}, {"geonameid": 4499379, "name": "Wilmington", "asciiname": "Wilmington", "lat": 34.23556, "lon": -77.94604, "feature_code": "PPLA2", "state": "NC", "county": "129", "population": 115933, "timezone": "America/New_York"}, {"geonameid": 4672989, "name": "Beaumont", "asciiname": "Beaumont", "lat": 30.08605, "lon": -94.10185, "feature_code": "PPLA2", "state": "TX", "county": "245", "population": 115282, "timezone": "America/Chicago"}, {"geonameid": 4905687, "name": "Peoria", "asciiname": "Peoria", "lat": 40.69365, "lon": -89.58899, "feature_code": "PPLA2", "state": "IL", "county": "143", "population": 115070, "timezone": "America/Chicago"}, {"geonameid": 4998830, "name": "Lansing", "asciiname": "Lansing", "lat": 42.73253, "lon": -84.55553, "feature_code": "PPLA", "state": "MI", "county": "065", "population": 112644, "timezone": "America/Detroit"}, {"geonameid": 5043473, "name": "Rochester", "asciiname": "Rochester", "lat": 44.02163, "lon": -92.4699, "feature_code": "PPLA2", "state": "MN", "county": "109", "population": 112225, "timezone": "America/Chicago"}, {"geonameid": 4682464, "name": "College Station", "asciiname": "College Station", "lat": 30.62798, "lon": -96.33441, "feature_code": "PPL", "state": "TX", "county": "041", "population": 107889, "timezone": "America/Chicago"}, {"geonameid": 5254962, "name": "Green Bay", "asciiname": "Green Bay", "lat": 44.51916, "lon": -88.01983, "feature_code": "PPLA2", "state": "WI", "county": "009", "population": 105207, "timezone": "America/Chicago"}, {"geonameid": 5393180, "name": "Santa Maria", "asciiname": "Santa Maria", "lat": 34.95303, "lon": -120.43572, "feature_code": "PPL", "state": "CA", "county": "083", "population": 105093, "timezone": "America/Los_Angeles"}, {"geonameid": 4741752, "name": "Wichita Falls", "asciiname": "Wichita Falls", "lat": 33.91371, "lon": -98.49339, "feature_code": "PPLA2", "state": "TX", "county": "485", "population": 104710, "timezone": "America/Chicago"}, {"geonameid": 4738214, "name": "Tyler", "asciiname": "Tyler", "lat": 32.35126, "lon": -95.30106, "feature_code": "PPLA2", "state": "TX", "county": "423", "population": 103700, "timezone": "America/Chicago"}, {"geonameid": 4853423, "name": "Davenport", "asciiname": "Davenport", "lat": 41.52364, "lon": -90.57764, "feature_code": "PPLA2", "state": "IA", "county": "163", "population": 102582, "timezone": "America/Chicago"}, {"geonameid": 4926563, "name": "South Bend", "asciiname": "South Bend", "lat": 41.68338, "lon": -86.25001, "feature_code": "PPLA2", "state": "IN", "county": "141", "population": 101516, "timezone": "America/Indiana/Indianapolis"}, {"geonameid": 5106834, "name": "Albany", "asciiname": "Albany", "lat": 42.65258, "lon": -73.75623, "feature_code": "PPLA", "state": "NY", "county": "001", "population": 101228, "timezone": "America/New_York"}, {"geonameid": 4782167, "name": "Roanoke", "asciiname": "Roanoke", "lat": 37.27097, "lon": -79.94143, "feature_code": "PPLA2", "state": "VA", "county": "770", "population": 100011, "timezone": "America/New_York"}, {"geonameid": 5530022, "name": "San Angelo", "asciiname": "San Angelo", "lat": 31.46377, "lon": -100.43704, "feature_code": "PPLA2", "state": "TX", "county": "451", "population": 99893, "timezone": "America/Chicago"}, {"geonameid": 5188843, "name": "Erie", "asciiname": "Erie", "lat": 42.12922, "lon": -80.08506, "feature_code": "PPLA2", "state": "PA", "county": "049", "population": 99475, "timezone": "America/New_York"}, {"geonameid": 5322053, "name": "Yuma", "asciiname": "Yuma", "lat": 32.72532, "lon": -114.6244, "feature_code": "PPLA2", "state": "AZ", "county": "027", "population": 95548, "timezone": "America/Phoenix"}, {"geonameid": 4453066, "name": "Asheville", "asciiname": "Asheville", "lat": 35.60095, "lon": -82.55402, "feature_code": "PPLA2", "state": "NC", "county": "021", "population": 95056, "timezone": "America/New_York"}, {"geonameid": 5816605, "name": "Yakima", "asciiname": "Yakima", "lat": 46.60207, "lon": -120.5059, "feature_code": "PPLA2", "state": "WA", "county": "077", "population": 93701, "timezone": "America/Los_Angeles"}, {"geonameid": 5570160, "name": "Redding", "asciiname": "Redding", "lat": 40.58654, "lon": -122.39168, "feature_code": "PPLA2", "state": "CA", "county": "089", "population": 91582, "timezone": "America/Los_Angeles"}, {"geonameid": 4207400, "name": "Macon", "asciiname": "Macon", "lat": 32.84069, "lon": -83.6324, "feature_code": "PPLA2", "state": "GA", "county": "021", "population": 91351, "timezone": "America/New_York"}, {"geonameid": 4469160, "name": "Greenville", "asciiname": "Greenville", "lat": 35.61266, "lon": -77.36635, "feature_code": "PPLA2", "state": "NC", "county": "147", "population": 90597, "timezone": "America/New_York"}, {"geonameid": 4111410, "name": "Fort Smith", "asciiname": "Fort Smith", "lat": 35.38592, "lon": -94.39855, "feature_code": "PPL", "state": "AR", "county": "131", "population": 88194, "timezone": "America/Chicago"}, {"geonameid": 5359446, "name": "Indio", "asciiname": "Indio", "lat": 33.7207, "lon": -116.21677, "feature_code": "PPL", "state": "CA", "county": "065", "population": 87533, "timezone": "America/Los_Angeles"}, {"geonameid": 5713587, "name": "Bend", "asciiname": "Bend", "lat": 44.05817, "lon": -121.31531, "feature_code": "PPLA2", "state": "OR", "county": "017", "population": 87014, "timezone": "America/Los_Angeles"}, {"geonameid": 5024719, "name": "Duluth", "asciiname": "Duluth", "lat": 46.78327, "lon": -92.10658, "feature_code": "PPLA2", "state": "MN", "county": "137", "population": 86110, "timezone": "America/Chicago"}, {"geonameid": 4887158, "name": "Champaign", "asciiname": "Champaign", "lat": 40.11642, "lon": -88.24338, "feature_code": "PPL", "state": "IL", "county": "019", "population": 86096, "timezone": "America/Chicago"}, {"geonameid": 5786899, "name": "Bellingham", "asciiname": "Bellingham", "lat": 48.75955, "lon": -122.48822, "feature_code": "PPLA2", "state": "WA", "county": "073", "population": 85146, "timezone": "America/Los_Angeles"}, {"geonameid": 4876523, "name": "Sioux City", "asciiname": "Sioux City", "lat": 42.49999, "lon": -96.40031, "feature_code": "PPLA2", "state": "IA", "county": "193", "population": 82821, "timezone": "America/Chicago"}, {"geonameid": 5740099, "name": "Medford", "asciiname": "Medford", "lat": 42.32652, "lon": -122.87559, "feature_code": "PPLA2", "state": "OR", "county": "029", "population": 79805, "timezone": "America/Los_Angeles"}, {"geonameid": 5211303, "name": "Scranton", "asciiname": "Scranton", "lat": 41.40916, "lon": -75.6649, "feature_code": "PPLA2", "state": "PA", "county": "069", "population": 77118, "timezone": "America/New_York"}, {"geonameid": 5688025, "name": "Bismarck", "asciiname": "Bismarck", "lat": 46.80833, "lon": -100.78374, "feature_code": "PPLA", "state": "ND", "county": "015", "population": 75092, "timezone": "America/Chicago"}, {"geonameid": 4179320, "name": "Albany", "asciiname": "Albany", "lat": 31.57851, "lon": -84.15574, "feature_code": "PPLA2", "state": "GA", "county": "095", "population": 74843, "timezone": "America/New_York"}, {"geonameid": 4116834, "name": "Jonesboro", "asciiname": "Jonesboro", "lat": 35.8423, "lon": -90.70428, "feature_code": "PPL", "state": "AR", "county": "031", "population": 73907, "timezone": "America/Chicago"}, {"geonameid": 5768233, "name": "Rapid City", "asciiname": "Rapid City", "lat": 44.08054, "lon": -103.23101, "feature_code": "PPLA2", "state": "SD", "county": "103", "population": 73569, "timezone": "America/Denver"}, {"geonameid": 5546220, "name": "Saint George", "asciiname": "Saint George", "lat": 37.10415, "lon": -113.58412, "feature_code": "PPL", "state": "UT", "county": "053", "population": 72897, "timezone": "America/Denver"}, {"geonameid": 4428667, "name": "Gulfport", "asciiname": "Gulfport", "lat": 30.36742, "lon": -89.09282, "feature_code": "PPL", "state": "MS", "county": "047", "population": 71856, "timezone": "America/Chicago"}, {"geonameid": 5666639, "name": "Missoula", "asciiname": "Missoula", "lat": 46.87215, "lon": -113.994, "feature_code": "PPLA2", "state": "MT", "county": "063", "population": 71022, "timezone": "America/Denver"}, {"geonameid": 5294810, "name": "Flagstaff", "asciiname": "Flagstaff", "lat": 35.19807, "lon": -111.65127, "feature_code": "PPLA2", "state": "AZ", "county": "005", "population": 70320, "timezone": "America/Phoenix"}, {"geonameid": 4059102, "name": "Dothan", "asciiname": "Dothan", "lat": 31.22323, "lon": -85.39049, "feature_code": "PPLA2", "state": "AL", "county": "069", "population": 68567, "timezone": "America/Chicago"}, {"geonameid": 5251436, "name": "Eau Claire", "asciiname": "Eau Claire", "lat": 44.81135, "lon": -91.49849, "feature_code": "PPLA2", "state": "WI", "county": "035", "population": 67778, "timezone": "America/Chicago"}, {"geonameid": 4739157, "name": "Victoria", "asciiname": "Victoria", "lat": 28.80527, "lon": -97.0036, "feature_code": "PPLA2", "state": "TX", "county": "469", "population": 67574, "timezone": "America/Chicago"}, {"geonameid": 4632595, "name": "Jackson", "asciiname": "Jackson", "lat": 35.61452, "lon": -88.81395, "feature_code": "PPLA2", "state": "TN", "county": "113", "population": 66975, "timezone": "America/Chicago"}, {"geonameid": 4975802, "name": "Portland", "asciiname": "Portland", "lat": 43.65737, "lon": -70.2589, "feature_code": "PPLA2", "state": "ME", "county": "005", "population": 66881, "timezone": "America/New_York"}, {"geonameid": 5821086, "name": "Cheyenne", "asciiname": "Cheyenne", "lat": 41.13998, "lon": -104.82025, "feature_code": "PPLA", "state": "WY", "county": "021", "population": 65132, "timezone": "America/Denver"}, {"geonameid": 4128894, "name": "Rogers", "asciiname": "Rogers", "lat": 36.33202, "lon": -94.11854, "feature_code": "PPL", "state": "AR", "county": "007", "population": 63159, "timezone": "America/Chicago"}, {"geonameid": 4265737, "name": "Terre Haute", "asciiname": "Terre Haute", "lat": 39.4667, "lon": -87.41391, "feature_code": "PPLA2", "state": "IN", "county": "167", "population": 60825, "timezone": "America/Indiana/Indianapolis"}, {"geonameid": 5423573, "name": "Grand Junction", "asciiname": "Grand Junction", "lat": 39.06387, "lon": -108.55065, "feature_code": "PPLA2", "state": "CO", "county": "077", "population": 60358, "timezone": "America/Denver"}, {"geonameid": 5820705, "name": "Casper", "asciiname": "Casper", "lat": 42.86663, "lon": -106.31308, "feature_code": "PPLA2", "state": "WY", "county": "025", "population": 60285, "timezone": "America/Denver"}, {"geonameid": 5655240, "name": "Great Falls", "asciiname": "Great Falls", "lat": 47.50024, "lon": -111.30081, "feature_code": "PPLA2", "state": "MT", "county": "013", "population": 59638, "timezone": "America/Denver"}, {"geonameid": 5596475, "name": "Idaho Falls", "asciiname": "Idaho Falls", "lat": 43.46658, "lon": -112.03414, "feature_code": "PPLA2", "state": "ID", "county": "019", "population": 59184, "timezone": "America/Boise"}, {"geonameid": 4166673, "name": "Ocala", "asciiname": "Ocala", "lat": 29.1872, "lon": -82.14009, "feature_code": "PPLA2", "state": "FL", "county": "083", "population": 58218, "timezone": "America/New_York"}, {"geonameid": 5059429, "name": "Grand Forks", "asciiname": "Grand Forks", "lat": 47.92526, "lon": -97.03285, "feature_code": "PPLA2", "state": "ND", "county": "035", "population": 57011, "timezone": "America/Chicago"}, {"geonameid": 4228147, "name": "Valdosta", "asciiname": "Valdosta", "lat": 30.83334, "lon": -83.28032, "feature_code": "PPLA2", "state": "GA", "county": "185", "population": 55724, "timezone": "America/New_York"}, {"geonameid": 5301388, "name": "Lake Havasu City", "asciiname": "Lake Havasu City", "lat": 34.4839, "lon": -114.32245, "feature_code": "PPL", "state": "AZ", "county": "015", "population": 53553, "timezone": "America/Phoenix"}, {"geonameid": 4634662, "name": "Kingsport", "asciiname": "Kingsport", "lat": 36.54843, "lon": -82.56182, "feature_code": "PPL", "state": "TN", "county": "163", "population": 53014, "timezone": "America/New_York"}, {"geonameid": 4763231, "name": "Harrisonburg", "asciiname": "Harrisonburg", "lat": 38.44957, "lon": -78.86892, "feature_code": "PPLA2", "state": "VA", "county": "660", "population": 52538, "timezone": "America/New_York"}, {"geonameid": 5258957, "name": "La Crosse", "asciiname": "La Crosse", "lat": 43.80136, "lon": -91.23958, "feature_code": "PPLA2", "state": "WI", "county": "063", "population": 52306, "timezone": "America/Chicago"}, {"geonameid": 4535961, "name": "Enid", "asciiname": "Enid", "lat": 36.39559, "lon": -97.87839, "feature_code": "PPLA2", "state": "OK", "county": "047", "population": 51776, "timezone": "America/Chicago"}, {"geonameid": 5069297, "name": "Grand Island", "asciiname": "Grand Island", "lat": 40.92501, "lon": -98.34201, "feature_code": "PPLA2", "state": "NE", "county": "079", "population": 51440, "timezone": "America/Chicago"}, {"geonameid": 5777544, "name": "Logan", "asciiname": "Logan", "lat": 41.73549, "lon": -111.83439, "feature_code": "PPLA2", "state": "UT", "county": "005", "population": 50371, "timezone": "America/Denver"}, {"geonameid": 5192726, "name": "Harrisburg", "asciiname": "Harrisburg", "lat": 40.2737, "lon": -76.88442, "feature_code": "PPLA", "state": "PA", "county": "043", "population": 50183, "timezone": "America/New_York"}, {"geonameid": 4333669, "name": "Monroe", "asciiname": "Monroe", "lat": 32.50931, "lon": -92.1193, "feature_code": "PPLA2", "state": "LA", "county": "073", "population": 49598, "timezone": "America/Chicago"}, {"geonameid": 5690532, "name": "Minot", "asciiname": "Minot", "lat": 48.23251, "lon": -101.29627, "feature_code": "PPLA2", "state": "ND", "county": "101", "population": 49450, "timezone": "America/Chicago"}, {"geonameid": 5488441, "name": "Roswell", "asciiname": "Roswell", "lat": 33.39437, "lon": -104.52491, "feature_code": "PPLA2", "state": "NM", "county": "005", "population": 48544, "timezone": "America/Denver"}, {"geonameid": 4314550, "name": "Alexandria", "asciiname": "Alexandria", "lat": 31.31129, "lon": -92.44514, "feature_code": "PPLA2", "state": "LA", "county": "079", "population": 47889, "timezone": "America/Chicago"}, {"geonameid": 4278890, "name": "Salina", "asciiname": "Salina", "lat": 38.84028, "lon": -97.61142, "feature_code": "PPLA2", "state": "KS", "county": "169", "population": 47813, "timezone": "America/Chicago"}, {"geonameid": 5610810, "name": "Twin Falls", "asciiname": "Twin Falls", "lat": 42.56297, "lon": -114.46087, "feature_code": "PPLA2", "state": "ID", "county": "083", "population": 47468, "timezone": "America/Boise"}, {"geonameid": 4429295, "name": "Hattiesburg", "asciiname": "Hattiesburg", "lat": 31.32712, "lon": -89.29034, "feature_code": "PPLA2", "state": "MS", "county": "035", "population": 46805, "timezone": "America/Chicago"}, {"geonameid": 5178195, "name": "Altoona", "asciiname": "Altoona", "lat": 40.51868, "lon": -78.39474, "feature_code": "PPL", "state": "PA", "county": "013", "population": 45344, "timezone": "America/New_York"}, {"geonameid": 5084868, "name": "Concord", "asciiname": "Concord", "lat": 43.20814, "lon": -71.53757, "feature_code": "PPLA", "state": "NH", "county": "013", "population": 43976, "timezone": "America/New_York"}, {"geonameid": 4180531, "name": "Augusta", "asciiname": "Augusta", "lat": 33.47097, "lon": -81.97484, "feature_code": "PPLA2", "state": "GA", "county": "245", "population": 43459, "timezone": "America/New_York"}, {"geonameid": 5641727, "name": "Bozeman", "asciiname": "Bozeman", "lat": 45.67965, "lon": -111.03856, "feature_code": "PPLA2", "state": "MT", "county": "031", "population": 43405, "timezone": "America/Denver"}, {"geonameid": 5467328, "name": "Farmington", "asciiname": "Farmington", "lat": 36.72806, "lon": -108.21869, "feature_code": "PPL", "state": "NM", "county": "045", "population": 42871, "timezone": "America/Denver"}, {"geonameid": 5234372, "name": "Burlington", "asciiname": "Burlington", "lat": 44.47588, "lon": -73.21207, "feature_code": "PPLA2", "state": "VT", "county": "007", "population": 42452, "timezone": "America/New_York"}, {"geonameid": 5001929, "name": "Midland", "asciiname": "Midland", "lat": 43.61558, "lon": -84.24721, "feature_code": "PPLA2", "state": "MI", "county": "111", "population": 42200, "timezone": "America/Detroit"}, {"geonameid": 5309842, "name": "Prescott", "asciiname": "Prescott", "lat": 34.54002, "lon": -112.4685, "feature_code": "PPLA2", "state": "AZ", "county": "025", "population": 41899, "timezone": "America/Phoenix"}, {"geonameid": 5153924, "name": "Findlay", "asciiname": "Findlay", "lat": 41.04422, "lon": -83.64993, "feature_code": "PPLA2", "state": "OH", "county": "063", "population": 41149, "timezone": "America/New_York"}, {"geonameid": 5036420, "name": "Mankato", "asciiname": "Mankato", "lat": 44.15906, "lon": -94.00915, "feature_code": "PPLA2", "state": "MN", "county": "013", "population": 41044, "timezone": "America/Chicago"}, {"geonameid": 4247703, "name": "Quincy", "asciiname": "Quincy", "lat": 39.9356, "lon": -91.40987, "feature_code": "PPLA2", "state": "IL", "county": "001", "population": 40780, "timezone": "America/Chicago"}, {"geonameid": 4357141, "name": "Hagerstown", "asciiname": "Hagerstown", "lat": 39.64176, "lon": -77.71999, "feature_code": "PPLA2", "state": "MD", "county": "043", "population": 40432, "timezone": "America/New_York"}, {"geonameid": 4435764, "name": "Meridian", "asciiname": "Meridian", "lat": 32.36431, "lon": -88.70366, "feature_code": "PPLA2", "state": "MS", "county": "075", "population": 39661, "timezone": "America/Chicago"}, {"geonameid": 5462393, "name": "Clovis", "asciiname": "Clovis", "lat": 34.4048, "lon": -103.20523, "feature_code": "PPLA2", "state": "NM", "county": "009", "population": 39480, "timezone": "America/Denver"}, {"geonameid": 4379966, "name": "Cape Girardeau", "asciiname": "Cape Girardeau", "lat": 37.30588, "lon": -89.51815, "feature_code": "PPL", "state": "MO", "county": "031", "population": 39462, "timezone": "America/Chicago"}, {"geonameid": 5278120, "name": "Wausau", "asciiname": "Wausau", "lat": 44.95914, "lon": -89.63012, "feature_code": "PPLA2", "state": "WI", "county": "073", "population": 39094, "timezone": "America/Chicago"}, {"geonameid": 5471578, "name": "Hobbs", "asciiname": "Hobbs", "lat": 32.70261, "lon": -103.13604, "feature_code": "PPL", "state": "NM", "county": "025", "population": 38416, "timezone": "America/Denver"}, {"geonameid": 4167694, "name": "Panama City", "asciiname": "Panama City", "lat": 30.15946, "lon": -85.65983, "feature_code": "PPLA2", "state": "FL", "county": "005", "population": 38286, "timezone": "America/Chicago"}, {"geonameid": 4578737, "name": "Florence", "asciiname": "Florence", "lat": 34.19543, "lon": -79.76256, "feature_code": "PPLA2", "state": "SC", "county": "041", "population": 38228, "timezone": "America/New_York"}, {"geonameid": 4736096, "name": "Texarkana", "asciiname": "Texarkana", "lat": 33.42513, "lon": -94.04769, "feature_code": "PPL", "state": "TX", "county": "037", "population": 37280, "timezone": "America/Chicago"}, {"geonameid": 4708308, "name": "Lufkin", "asciiname": "Lufkin", "lat": 31.33824, "lon": -94.7291, "feature_code": "PPLA2", "state": "TX", "county": "005", "population": 36333, "timezone": "America/Chicago"}, {"geonameid": 5520076, "name": "Del Rio", "asciiname": "Del Rio", "lat": 29.36273, "lon": -100.89676, "feature_code": "PPLA2", "state": "TX", "county": "465", "population": 36153, "timezone": "America/Chicago"}, {"geonameid": 4448903, "name": "Tupelo", "asciiname": "Tupelo", "lat": 34.25807, "lon": -88.70464, "feature_code": "PPLA2", "state": "MS", "county": "081", "population": 35680, "timezone": "America/Chicago"}, {"geonameid": 5642934, "name": "Butte", "asciiname": "Butte", "lat": 46.00382, "lon": -112.53474, "feature_code": "PPLA2", "state": "MT", "county": "093", "population": 34190, "timezone": "America/Denver"}, {"geonameid": 4368711, "name": "Salisbury", "asciiname": "Salisbury", "lat": 38.36067, "lon": -75.59937, "feature_code": "PPLA2", "state": "MD", "county": "045", "population": 32899, "timezone": "America/New_York"}, {"geonameid": 5807540, "name": "Pullman", "asciiname": "Pullman", "lat": 46.73127, "lon": -117.17962, "feature_code": "PPL", "state": "WA", "county": "075", "population": 32816, "timezone": "America/Los_Angeles"}, {"geonameid": 5826027, "name": "Gillette", "asciiname": "Gillette", "lat": 44.29109, "lon": -105.50222, "feature_code": "PPLA2", "state": "WY", "county": "005", "population": 32649, "timezone": "America/Denver"}, {"geonameid": 4957280, "name": "Bangor", "asciiname": "Bangor", "lat": 44.79884, "lon": -68.77265, "feature_code": "PPLA2", "state": "ME", "county": "019", "population": 32391, "timezone": "America/New_York"}, {"geonameid": 4295251, "name": "Hopkinsville", "asciiname": "Hopkinsville", "lat": 36.86561, "lon": -87.49117, "feature_code": "PPLA2", "state": "KY", "county": "047", "population": 32205, "timezone": "America/Chicago"}, {"geonameid": 4428475, "name": "Greenville", "asciiname": "Greenville", "lat": 33.40898, "lon": -91.05978, "feature_code": "PPLA2", "state": "MS", "county": "151", "population": 32156, "timezone": "America/Chicago"}, {"geonameid": 4615145, "name": "Cookeville", "asciiname": "Cookeville", "lat": 36.16284, "lon": -85.50164, "feature_code": "PPLA2", "state": "TN", "county": "141", "population": 32113, "timezone": "America/Chicago"}, {"geonameid": 4165637, "name": "Navarre", "asciiname": "Navarre", "lat": 30.40159, "lon": -86.86357, "feature_code": "PPL", "state": "FL", "county": "113", "population": 31378, "timezone": "America/Chicago"}, {"geonameid": 4817641, "name": "Parkersburg", "asciiname": "Parkersburg", "lat": 39.26674, "lon": -81.56151, "feature_code": "PPLA2", "state": "WV", "county": "107", "population": 30991, "timezone": "America/New_York"}, {"geonameid": 8436572, "name": "South Kingstown", "asciiname": "South Kingstown", "lat": 41.44718, "lon": -71.52494, "feature_code": "PPL", "state": "RI", "county": "009", "population": 30826, "timezone": "America/New_York"}, {"geonameid": 5454627, "name": "Alamogordo", "asciiname": "Alamogordo", "lat": 32.89953, "lon": -105.96027, "feature_code": "PPLA2", "state": "NM", "county": "035", "population": 30753, "timezone": "America/Denver"}, {"geonameid": 5132143, "name": "Poughkeepsie", "asciiname": "Poughkeepsie", "lat": 41.70037, "lon": -73.92097, "feature_code": "PPLA2", "state": "NY", "county": "027", "population": 30371, "timezone": "America/New_York"}, {"geonameid": 5219585, "name": "Williamsport", "asciiname": "Williamsport", "lat": 41.24119, "lon": -77.00108, "feature_code": "PPLA2", "state": "PA", "county": "081", "population": 29201, "timezone": "America/New_York"}, {"geonameid": 5460459, "name": "Carlsbad", "asciiname": "Carlsbad", "lat": 32.42067, "lon": -104.22884, "feature_code": "PPLA2", "state": "NM", "county": "015", "population": 28957, "timezone": "America/Denver"}, {"geonameid": 5387494, "name": "Ridgecrest", "asciiname": "Ridgecrest", "lat": 35.62246, "lon": -117.6709, "feature_code": "PPL", "state": "CA", "county": "029", "population": 28780, "timezone": "America/Los_Angeles"}, {"geonameid": 5225857, "name": "Aberdeen", "asciiname": "Aberdeen", "lat": 45.4647, "lon": -98.48648, "feature_code": "PPLA2", "state": "SD", "county": "013", "population": 28102, "timezone": "America/Chicago"}, {"geonameid": 5445298, "name": "Dodge City", "asciiname": "Dodge City", "lat": 37.7528, "lon": -100.01708, "feature_code": "PPLA2", "state": "KS", "county": "057", "population": 27912, "timezone": "America/Chicago"}, {"geonameid": 5138022, "name": "Shirley", "asciiname": "Shirley", "lat": 40.80149, "lon": -72.8676, "feature_code": "PPL", "state": "NY", "county": "103", "population": 27854, "timezone": "America/New_York"}, {"geonameid": 4866445, "name": "Mason City", "asciiname": "Mason City", "lat": 43.15357, "lon": -93.20104, "feature_code": "PPLA2", "state": "IA", "county": "033", "population": 27366, "timezone": "America/Chicago"}, {"geonameid": 4569298, "name": "Anderson", "asciiname": "Anderson", "lat": 34.50344, "lon": -82.65013, "feature_code": "PPLA2", "state": "SC", "county": "007", "population": 27335, "timezone": "America/New_York"}, {"geonameid": 5563397, "name": "Eureka", "asciiname": "Eureka", "lat": 40.80207, "lon": -124.16367, "feature_code": "PPLA2", "state": "CA", "county": "023", "population": 27017, "timezone": "America/Los_Angeles"}, {"geonameid": 5692947, "name": "Williston", "asciiname": "Williston", "lat": 48.14697, "lon": -103.61797, "feature_code": "PPLA2", "state": "ND", "county": "105", "population": 26977, "timezone": "America/Chicago"}, {"geonameid": 5143396, "name": "Watertown", "asciiname": "Watertown", "lat": 43.97478, "lon": -75.91076, "feature_code": "PPLA2", "state": "NY", "county": "045", "population": 26780, "timezone": "America/New_York"}, {"geonameid": 4160812, "name": "Key West", "asciiname": "Key West", "lat": 24.55524, "lon": -81.78163, "feature_code": "PPLA2", "state": "FL", "county": "087", "population": 25755, "timezone": "America/New_York"}, {"geonameid": 5174358, "name": "Troy", "asciiname": "Troy", "lat": 40.0395, "lon": -84.20328, "feature_code": "PPLA2", "state": "OH", "county": "109", "population": 25659, "timezone": "America/New_York"}, {"geonameid": 4529469, "name": "Ardmore", "asciiname": "Ardmore", "lat": 34.17426, "lon": -97.14363, "feature_code": "PPLA2", "state": "OK", "county": "019", "population": 25176, "timezone": "America/Chicago"}, {"geonameid": 4884453, "name": "Belvidere", "asciiname": "Belvidere", "lat": 42.26391, "lon": -88.84427, "feature_code": "PPLA2", "state": "IL", "county": "007", "population": 25132, "timezone": "America/Chicago"}, {"geonameid": 5397018, "name": "Soledad", "asciiname": "Soledad", "lat": 36.42469, "lon": -121.32632, "feature_code": "PPL", "state": "CA", "county": "053", "population": 25003, "timezone": "America/Los_Angeles"}, {"geonameid": 4717560, "name": "Paris", "asciiname": "Paris", "lat": 33.66094, "lon": -95.55551, "feature_code": "PPLA2", "state": "TX", "county": "277", "population": 24782, "timezone": "America/Chicago"}, {"geonameid": 4857486, "name": "Fort Dodge", "asciiname": "Fort Dodge", "lat": 42.49747, "lon": -94.16802, "feature_code": "PPLA2", "state": "IA", "county": "187", "population": 24649, "timezone": "America/Chicago"}, {"geonameid": 4870380, "name": "Ottumwa", "asciiname": "Ottumwa", "lat": 41.02001, "lon": -92.4113, "feature_code": "PPLA2", "state": "IA", "county": "179", "population": 24624, "timezone": "America/Chicago"}, {"geonameid": 5697939, "name": "North Platte", "asciiname": "North Platte", "lat": 41.12389, "lon": -100.76542, "feature_code": "PPLA2", "state": "NE", "county": "111", "population": 24194, "timezone": "America/Chicago"}, {"geonameid": 5836898, "name": "Rock Springs", "asciiname": "Rock Springs", "lat": 41.58746, "lon": -109.2029, "feature_code": "PPL", "state": "WY", "county": "037", "population": 23962, "timezone": "America/Denver"}, {"geonameid": 5688789, "name": "Dickinson", "asciiname": "Dickinson", "lat": 46.87918, "lon": -102.78962, "feature_code": "PPLA2", "state": "ND", "county": "089", "population": 23765, "timezone": "America/Denver"}, {"geonameid": 5468773, "name": "Gallup", "asciiname": "Gallup", "lat": 35.52808, "lon": -108.74258, "feature_code": "PPLA2", "state": "NM", "county": "031", "population": 23240, "timezone": "America/Denver"}, {"geonameid": 5378500, "name": "Oakdale", "asciiname": "Oakdale", "lat": 37.76659, "lon": -120.84715, "feature_code": "PPL", "state": "CA", "county": "099", "population": 22259, "timezone": "America/Los_Angeles"}, {"geonameid": 5232741, "name": "Watertown", "asciiname": "Watertown", "lat": 44.89941, "lon": -97.11507, "feature_code": "PPLA2", "state": "SD", "county": "029", "population": 22073, "timezone": "America/Chicago"}, {"geonameid": 5660340, "name": "Kalispell", "asciiname": "Kalispell", "lat": 48.19579, "lon": -114.31291, "feature_code": "PPLA2", "state": "MT", "county": "029", "population": 22052, "timezone": "America/Denver"}, {"geonameid": 5000947, "name": "Marquette", "asciiname": "Marquette", "lat": 46.54354, "lon": -87.39542, "feature_code": "PPLA2", "state": "MI", "county": "103", "population": 21297, "timezone": "America/Detroit"}, {"geonameid": 4272782, "name": "Hays", "asciiname": "Hays", "lat": 38.87918, "lon": -99.32677, "feature_code": "PPLA2", "state": "KS", "county": "051", "population": 21092, "timezone": "America/Chicago"}, {"geonameid": 5445820, "name": "Liberal", "asciiname": "Liberal", "lat": 37.04308, "lon": -100.921, "feature_code": "PPLA2", "state": "KS", "county": "175", "population": 20746, "timezone": "America/Chicago"}, {"geonameid": 4277241, "name": "Pittsburg", "asciiname": "Pittsburg", "lat": 37.41088, "lon": -94.70496, "feature_code": "PPL", "state": "KS", "county": "037", "population": 20409, "timezone": "America/Chicago"}, {"geonameid": 5703670, "name": "Elko", "asciiname": "Elko", "lat": 40.83242, "lon": -115.76312, "feature_code": "PPLA2", "state": "NV", "county": "007", "population": 20279, "timezone": "America/Los_Angeles"}, {"geonameid": 4734350, "name": "Stephenville", "asciiname": "Stephenville", "lat": 32.2207, "lon": -98.20226, "feature_code": "PPLA2", "state": "TX", "county": "143", "population": 20120, "timezone": "America/Chicago"}, {"geonameid": 4406282, "name": "Rolla", "asciiname": "Rolla", "lat": 37.95143, "lon": -91.77127, "feature_code": "PPLA2", "state": "MO", "county": "161", "population": 20019, "timezone": "America/Chicago"}, {"geonameid": 5052916, "name": "Willmar", "asciiname": "Willmar", "lat": 45.12191, "lon": -95.04334, "feature_code": "PPLA2", "state": "MN", "county": "067", "population": 19638, "timezone": "America/Chicago"}, {"geonameid": 5807212, "name": "Port Angeles", "asciiname": "Port Angeles", "lat": 48.11815, "lon": -123.43074, "feature_code": "PPLA2", "state": "WA", "county": "009", "population": 19448, "timezone": "America/Los_Angeles"}, {"geonameid": 4529292, "name": "Altus", "asciiname": "Altus", "lat": 34.63813, "lon": -99.33398, "feature_code": "PPLA2", "state": "OK", "county": "065", "population": 19214, "timezone": "America/Chicago"}, {"geonameid": 4241704, "name": "Jacksonville", "asciiname": "Jacksonville", "lat": 39.73394, "lon": -90.22901, "feature_code": "PPLA2", "state": "IL", "county": "137", "population": 19103, "timezone": "America/Chicago"}, {"geonameid": 4805404, "name": "Fairmont", "asciiname": "Fairmont", "lat": 39.48508, "lon": -80.14258, "feature_code": "PPLA2", "state": "WV", "county": "049", "population": 18733, "timezone": "America/New_York"}, {"geonameid": 4542367, "name": "McAlester", "asciiname": "McAlester", "lat": 34.93343, "lon": -95.76971, "feature_code": "PPLA2", "state": "OK", "county": "121", "population": 18310, "timezone": "America/Chicago"}, {"geonameid": 5838198, "name": "Sheridan", "asciiname": "Sheridan", "lat": 44.79719, "lon": -106.95618, "feature_code": "PPLA2", "state": "WY", "county": "033", "population": 17873, "timezone": "America/Denver"}, {"geonameid": 4922968, "name": "Logansport", "asciiname": "Logansport", "lat": 40.75448, "lon": -86.35667, "feature_code": "PPLA2", "state": "IN", "county": "017", "population": 17793, "timezone": "America/Indiana/Indianapolis"}, {"geonameid": 4829307, "name": "Bay City", "asciiname": "Bay City", "lat": 28.98276, "lon": -95.9694, "feature_code": "PPLA2", "state": "TX", "county": "321", "population": 17598, "timezone": "America/Chicago"}, {"geonameid": 5164390, "name": "New Philadelphia", "asciiname": "New Philadelphia", "lat": 40.48979, "lon": -81.44567, "feature_code": "PPLA2", "state": "OH", "county": "157", "population": 17484, "timezone": "America/New_York"}, {"geonameid": 4798308, "name": "Beckley", "asciiname": "Beckley", "lat": 37.77817, "lon": -81.18816, "feature_code": "PPLA2", "state": "WV", "county": "081", "population": 17056, "timezone": "America/New_York"}, {"geonameid": 5789683, "name": "Centralia", "asciiname": "Centralia", "lat": 46.71621, "lon": -122.9543, "feature_code": "PPL", "state": "WA", "county": "041", "population": 16753, "timezone": "America/Los_Angeles"}, {"geonameid": 5293083, "name": "Douglas", "asciiname": "Douglas", "lat": 31.34455, "lon": -109.54534, "feature_code": "PPL", "state": "AZ", "county": "003", "population": 16592, "timezone": "America/Phoenix"}, {"geonameid": 4738721, "name": "Uvalde", "asciiname": "Uvalde", "lat": 29.20968, "lon": -99.78617, "feature_code": "PPLA2", "state": "TX", "county": "463", "population": 16476, "timezone": "America/Chicago"}, {"geonameid": 5720495, "name": "Coos Bay", "asciiname": "Coos Bay", "lat": 43.3665, "lon": -124.21789, "feature_code": "PPL", "state": "OR", "county": "011", "population": 16182, "timezone": "America/Los_Angeles"}, {"geonameid": 5229794, "name": "Mitchell", "asciiname": "Mitchell", "lat": 43.70943, "lon": -98.0298, "feature_code": "PPLA2", "state": "SD", "county": "035", "population": 15669, "timezone": "America/Chicago"}, {"geonameid": 5059836, "name": "Jamestown", "asciiname": "Jamestown", "lat": 46.91054, "lon": -98.70844, "feature_code": "PPLA2", "state": "ND", "county": "093", "population": 15422, "timezone": "America/Chicago"}, {"geonameid": 5308305, "name": "Payson", "asciiname": "Payson", "lat": 34.23087, "lon": -111.32514, "feature_code": "PPL", "state": "AZ", "county": "007", "population": 15345, "timezone": "America/Phoenix"}, {"geonameid": 5756304, "name": "The Dalles", "asciiname": "The Dalles", "lat": 45.59456, "lon": -121.17868, "feature_code": "PPLA2", "state": "OR", "county": "065", "population": 15340, "timezone": "America/Los_Angeles"}, {"geonameid": 5572400, "name": "Susanville", "asciiname": "Susanville", "lat": 40.41628, "lon": -120.65301, "feature_code": "PPLA2", "state": "CA", "county": "035", "population": 15247, "timezone": "America/Los_Angeles"}, {"geonameid": 5012495, "name": "Traverse City", "asciiname": "Traverse City", "lat": 44.76306, "lon": -85.62063, "feature_code": "PPLA2", "state": "MI", "county": "055", "population": 15218, "timezone": "America/Detroit"}, {"geonameid": 4437982, "name": "Natchez", "asciiname": "Natchez", "lat": 31.56017, "lon": -91.40329, "feature_code": "PPLA2", "state": "MS", "county": "001", "population": 15128, "timezone": "America/Chicago"}, {"geonameid": 4245152, "name": "Mount Vernon", "asciiname": "Mount Vernon", "lat": 38.31727, "lon": -88.90312, "feature_code": "PPLA2", "state": "IL", "county": "081", "population": 15087, "timezone": "America/Chicago"}, {"geonameid": 5699404, "name": "Scottsbluff", "asciiname": "Scottsbluff", "lat": 41.86663, "lon": -103.66717, "feature_code": "PPL", "state": "NE", "county": "157", "population": 14802, "timezone": "America/Denver"}, {"geonameid": 5017822, "name": "Bemidji", "asciiname": "Bemidji", "lat": 47.47356, "lon": -94.88028, "feature_code": "PPLA2", "state": "MN", "county": "007", "population": 14594, "timezone": "America/Chicago"}, {"geonameid": 5464806, "name": "Deming", "asciiname": "Deming", "lat": 32.2687, "lon": -107.75864, "feature_code": "PPLA2", "state": "NM", "county": "029", "population": 14522, "timezone": "America/Denver"}, {"geonameid": 4722837, "name": "Rio Grande City", "asciiname": "Rio Grande City", "lat": 26.37979, "lon": -98.8203, "feature_code": "PPLA2", "state": "TX", "county": "427", "population": 14404, "timezone": "America/Chicago"}, {"geonameid": 4940190, "name": "Hyannis", "asciiname": "Hyannis", "lat": 41.65289, "lon": -70.2828, "feature_code": "PPL", "state": "MA", "county": "001", "population": 14120, "timezone": "America/New_York"}, {"geonameid": 5582392, "name": "Sterling", "asciiname": "Sterling", "lat": 40.62554, "lon": -103.20771, "feature_code": "PPLA2", "state": "CO", "county": "075", "population": 14104, "timezone": "America/Denver"}, {"geonameid": 5767918, "name": "Pierre", "asciiname": "Pierre", "lat": 44.36832, "lon": -100.35097, "feature_code": "PPLA", "state": "SD", "county": "065", "population": 14091, "timezone": "America/Chicago"}, {"geonameid": 5129852, "name": "Oneonta", "asciiname": "Oneonta", "lat": 42.45286, "lon": -75.06377, "feature_code": "PPL", "state": "NY", "county": "077", "population": 13862, "timezone": "America/New_York"}, {"geonameid": 5009004, "name": "Sault Ste. Marie", "asciiname": "Sault Ste. Marie", "lat": 46.4953, "lon": -84.34532, "feature_code": "PPLA2", "state": "MI", "county": "033", "population": 13827, "timezone": "America/Detroit"}, {"geonameid": 5334423, "name": "Carpinteria", "asciiname": "Carpinteria", "lat": 34.39888, "lon": -119.51846, "feature_code": "PPL", "state": "CA", "county": "083", "population": 13727, "timezone": "America/Los_Angeles"}, {"geonameid": 5475433, "name": "Las Vegas", "asciiname": "Las Vegas", "lat": 35.59393, "lon": -105.2239, "feature_code": "PPLA2", "state": "NM", "county": "047", "population": 13386, "timezone": "America/Denver"}, {"geonameid": 5019116, "name": "Brainerd", "asciiname": "Brainerd", "lat": 46.35802, "lon": -94.20083, "feature_code": "PPLA2", "state": "MN", "county": "035", "population": 13371, "timezone": "America/Chicago"}, {"geonameid": 4321310, "name": "Crowley", "asciiname": "Crowley", "lat": 30.21409, "lon": -92.37458, "feature_code": "PPLA2", "state": "LA", "county": "001", "population": 13144, "timezone": "America/Chicago"}, {"geonameid": 5735537, "name": "La Grande", "asciiname": "La Grande", "lat": 45.32458, "lon": -118.08772, "feature_code": "PPLA2", "state": "OR", "county": "061", "population": 13074, "timezone": "America/Los_Angeles"}, {"geonameid": 5210117, "name": "Saint Marys", "asciiname": "Saint Marys", "lat": 41.42784, "lon": -78.56086, "feature_code": "PPL", "state": "PA", "county": "047", "population": 13070, "timezone": "America/New_York"}, {"geonameid": 4556050, "name": "Woodward", "asciiname": "Woodward", "lat": 36.43365, "lon": -99.39039, "feature_code": "PPLA2", "state": "OK", "county": "153", "population": 12993, "timezone": "America/Chicago"}, {"geonameid": 4428539, "name": "Grenada", "asciiname": "Grenada", "lat": 33.769, "lon": -89.80842, "feature_code": "PPLA2", "state": "MS", "county": "043", "population": 12900, "timezone": "America/Chicago"}, {"geonameid": 5582371, "name": "Steamboat Springs", "asciiname": "Steamboat Springs", "lat": 40.48498, "lon": -106.83172, "feature_code": "PPLA2", "state": "CO", "county": "107", "population": 12435, "timezone": "America/Denver"}, {"geonameid": 5063646, "name": "Beatrice", "asciiname": "Beatrice", "lat": 40.26806, "lon": -96.74697, "feature_code": "PPLA2", "state": "NE", "county": "067", "population": 12388, "timezone": "America/Chicago"}, {"geonameid": 5710669, "name": "Agate Beach", "asciiname": "Agate Beach", "lat": 44.67734, "lon": -124.06178, "feature_code": "PPL", "state": "OR", "county": "041", "population": 12351, "timezone": "America/Los_Angeles"}, {"geonameid": 4123037, "name": "Mountain Home", "asciiname": "Mountain Home", "lat": 36.33534, "lon": -92.38516, "feature_code": "PPLA2", "state": "AR", "county": "005", "population": 12330, "timezone": "America/Chicago"}, {"geonameid": 4069553, "name": "Jacksonville", "asciiname": "Jacksonville", "lat": 33.81382, "lon": -85.7613, "feature_code": "PPL", "state": "AL", "county": "015", "population": 12222, "timezone": "America/Chicago"}, {"geonameid": 4554858, "name": "Weatherford", "asciiname": "Weatherford", "lat": 35.52616, "lon": -98.70757, "feature_code": "PPL", "state": "OK", "county": "039", "population": 12126, "timezone": "America/Chicago"}, {"geonameid": 5056172, "name": "Maryville", "asciiname": "Maryville", "lat": 40.3461, "lon": -94.87247, "feature_code": "PPLA2", "state": "MO", "county": "147", "population": 11879, "timezone": "America/Chicago"}, {"geonameid": 5530921, "name": "Snyder", "asciiname": "Snyder", "lat": 32.71789, "lon": -100.91762, "feature_code": "PPLA2", "state": "TX", "county": "415", "population": 11768, "timezone": "America/Chicago"}, {"geonameid": 4308922, "name": "Somerset", "asciiname": "Somerset", "lat": 37.09202, "lon": -84.60411, "feature_code": "PPLA2", "state": "KY", "county": "199", "population": 11439, "timezone": "America/New_York"}, {"geonameid": 4104182, "name": "Camden", "asciiname": "Camden", "lat": 33.58456, "lon": -92.83433, "feature_code": "PPLA2", "state": "AR", "county": "103", "population": 11347, "timezone": "America/Chicago"}, {"geonameid": 4877138, "name": "Spencer", "asciiname": "Spencer", "lat": 43.14136, "lon": -95.14444, "feature_code": "PPLA2", "state": "IA", "county": "041", "population": 11212, "timezone": "America/Chicago"}, {"geonameid": 5784154, "name": "Vernal", "asciiname": "Vernal", "lat": 40.45552, "lon": -109.52875, "feature_code": "PPLA2", "state": "UT", "county": "047", "population": 11200, "timezone": "America/Denver"}, {"geonameid": 5028537, "name": "Grand Rapids", "asciiname": "Grand Rapids", "lat": 47.23717, "lon": -93.53021, "feature_code": "PPLA2", "state": "MN", "county": "061", "population": 11127, "timezone": "America/Chicago"}, {"geonameid": 4692279, "name": "Fredericksburg", "asciiname": "Fredericksburg", "lat": 30.2752, "lon": -98.87198, "feature_code": "PPLA2", "state": "TX", "county": "171", "population": 11094, "timezone": "America/Chicago"}, {"geonameid": 5113760, "name": "Corning", "asciiname": "Corning", "lat": 42.14285, "lon": -77.05469, "feature_code": "PPL", "state": "NY", "county": "101", "population": 10897, "timezone": "America/New_York"}, {"geonameid": 5836665, "name": "Riverton", "asciiname": "Riverton", "lat": 43.02496, "lon": -108.3801, "feature_code": "PPL", "state": "WY", "county": "013", "population": 10873, "timezone": "America/Denver"}, {"geonameid": 5314245, "name": "Show Low", "asciiname": "Show Low", "lat": 34.25421, "lon": -110.02983, "feature_code": "PPL", "state": "AZ", "county": "017", "population": 10860, "timezone": "America/Phoenix"}, {"geonameid": 4228425, "name": "Vidalia", "asciiname": "Vidalia", "lat": 32.21769, "lon": -82.41346, "feature_code": "PPL", "state": "GA", "county": "279", "population": 10679, "timezone": "America/New_York"}, {"geonameid": 5126194, "name": "Massena", "asciiname": "Massena", "lat": 44.9281, "lon": -74.89186, "feature_code": "PPL", "state": "NY", "county": "089", "population": 10629, "timezone": "America/New_York"}, {"geonameid": 5828648, "name": "Jackson", "asciiname": "Jackson", "lat": 43.47993, "lon": -110.76243, "feature_code": "PPL", "state": "WY", "county": "039", "population": 10523, "timezone": "America/Denver"}, {"geonameid": 4172383, "name": "Sebring", "asciiname": "Sebring", "lat": 27.49559, "lon": -81.44091, "feature_code": "PPLA2", "state": "FL", "county": "055", "population": 10497, "timezone": "America/New_York"}, {"geonameid": 4984075, "name": "Alpena", "asciiname": "Alpena", "lat": 45.06168, "lon": -83.43275, "feature_code": "PPLA2", "state": "MI", "county": "007", "population": 10175, "timezone": "America/Detroit"}, {"geonameid": 4300105, "name": "Mayfield", "asciiname": "Mayfield", "lat": 36.74172, "lon": -88.63672, "feature_code": "PPLA2", "state": "KY", "county": "083", "population": 10080, "timezone": "America/Chicago"}, {"geonameid": 5423092, "name": "Glenwood Springs", "asciiname": "Glenwood Springs", "lat": 39.55054, "lon": -107.32478, "feature_code": "PPLA2", "state": "CO", "county": "045", "population": 9906, "timezone": "America/Denver"}, {"geonameid": 5656497, "name": "Havre", "asciiname": "Havre", "lat": 48.55, "lon": -109.68409, "feature_code": "PPLA2", "state": "MT", "county": "041", "population": 9834, "timezone": "America/Denver"}, {"geonameid": 5411479, "name": "Alamosa", "asciiname": "Alamosa", "lat": 37.46945, "lon": -105.87002, "feature_code": "PPLA2", "state": "CO", "county": "003", "population": 9819, "timezone": "America/Denver"}, {"geonameid": 5821593, "name": "Cody", "asciiname": "Cody", "lat": 44.52634, "lon": -109.05653, "feature_code": "PPLA2", "state": "WY", "county": "029", "population": 9792, "timezone": "America/Denver"}, {"geonameid": 5312476, "name": "Safford", "asciiname": "Safford", "lat": 32.83395, "lon": -109.70758, "feature_code": "PPLA2", "state": "AZ", "county": "009", "population": 9683, "timezone": "America/Phoenix"}, {"geonameid": 5528182, "name": "Pecos", "asciiname": "Pecos", "lat": 31.42291, "lon": -103.49323, "feature_code": "PPLA2", "state": "TX", "county": "389", "population": 9517, "timezone": "America/Chicago"}, {"geonameid": 4381104, "name": "Chillicothe", "asciiname": "Chillicothe", "lat": 39.79529, "lon": -93.55244, "feature_code": "PPLA2", "state": "MO", "county": "117", "population": 9487, "timezone": "America/Chicago"}, {"geonameid": 5083330, "name": "Berlin", "asciiname": "Berlin", "lat": 44.46867, "lon": -71.18508, "feature_code": "PPL", "state": "NH", "county": "007", "population": 9367, "timezone": "America/New_York"}, {"geonameid": 4480153, "name": "Morehead City", "asciiname": "Morehead City", "lat": 34.72294, "lon": -76.72604, "feature_code": "PPL", "state": "NC", "county": "031", "population": 9347, "timezone": "America/New_York"}, {"geonameid": 4975966, "name": "Presque Isle", "asciiname": "Presque Isle", "lat": 46.68115, "lon": -68.01586, "feature_code": "PPL", "state": "ME", "county": "003", "population": 9171, "timezone": "America/New_York"}, {"geonameid": 4089536, "name": "Sheffield", "asciiname": "Sheffield", "lat": 34.76509, "lon": -87.69864, "feature_code": "PPL", "state": "AL", "county": "033", "population": 9108, "timezone": "America/Chicago"}, {"geonameid": 4830099, "name": "Andalusia", "asciiname": "Andalusia", "lat": 31.30808, "lon": -86.48243, "feature_code": "PPLA2", "state": "AL", "county": "039", "population": 9063, "timezone": "America/Chicago"}, {"geonameid": 5836068, "name": "Rawlins", "asciiname": "Rawlins", "lat": 41.79107, "lon": -107.23866, "feature_code": "PPLA2", "state": "WY", "county": "007", "population": 9040, "timezone": "America/Denver"}, {"geonameid": 4381643, "name": "Clinton", "asciiname": "Clinton", "lat": 38.36863, "lon": -93.77827, "feature_code": "PPLA2", "state": "MO", "county": "083", "population": 8899, "timezone": "America/Chicago"}, {"geonameid": 5666176, "name": "Miles City", "asciiname": "Miles City", "lat": 46.40834, "lon": -105.84056, "feature_code": "PPLA2", "state": "MT", "county": "017", "population": 8796, "timezone": "America/Denver"}, {"geonameid": 5491999, "name": "Socorro", "asciiname": "Socorro", "lat": 34.0584, "lon": -106.89142, "feature_code": "PPLA2", "state": "NM", "county": "053", "population": 8722, "timezone": "America/Denver"}, {"geonameid": 4355756, "name": "Frostburg", "asciiname": "Frostburg", "lat": 39.65814, "lon": -78.92836, "feature_code": "PPL", "state": "MD", "county": "001", "population": 8667, "timezone": "America/New_York"}, {"geonameid": 5318279, "name": "Tuba City", "asciiname": "Tuba City", "lat": 36.13499, "lon": -111.23986, "feature_code": "PPL", "state": "AZ", "county": "005", "population": 8611, "timezone": "America/Denver"}, {"geonameid": 5545269, "name": "Price", "asciiname": "Price", "lat": 39.59941, "lon": -110.81071, "feature_code": "PPLA2", "state": "UT", "county": "007", "population": 8378, "timezone": "America/Denver"}, {"geonameid": 5519862, "name": "Dalhart", "asciiname": "Dalhart", "lat": 36.05948, "lon": -102.51325, "feature_code": "PPLA2", "state": "TX", "county": "111", "population": 8370, "timezone": "America/Chicago"}, {"geonameid": 4758495, "name": "Farmville", "asciiname": "Farmville", "lat": 37.3021, "lon": -78.39194, "feature_code": "PPLA2", "state": "VA", "county": "147", "population": 8169, "timezone": "America/New_York"}, {"geonameid": 5442007, "name": "Trinidad", "asciiname": "Trinidad", "lat": 37.16946, "lon": -104.50054, "feature_code": "PPLA2", "state": "CO", "county": "071", "population": 8153, "timezone": "America/Denver"}, {"geonameid": 5594956, "name": "Hailey", "asciiname": "Hailey", "lat": 43.51963, "lon": -114.31532, "feature_code": "PPLA2", "state": "ID", "county": "013", "population": 8134, "timezone": "America/Boise"}, {"geonameid": 5000306, "name": "Ludington", "asciiname": "Ludington", "lat": 43.95528, "lon": -86.45258, "feature_code": "PPLA2", "state": "MI", "county": "105", "population": 8058, "timezone": "America/Detroit"}, {"geonameid": 5793832, "name": "Ephrata", "asciiname": "Ephrata", "lat": 47.31764, "lon": -119.55365, "feature_code": "PPLA2", "state": "WA", "county": "025", "population": 8047, "timezone": "America/Los_Angeles"}, {"geonameid": 5244247, "name": "Ashland", "asciiname": "Ashland", "lat": 46.59244, "lon": -90.8838, "feature_code": "PPLA2", "state": "WI", "county": "003", "population": 8040, "timezone": "America/Chicago"}, {"geonameid": 4996572, "name": "Houghton", "asciiname": "Houghton", "lat": 47.12187, "lon": -88.56901, "feature_code": "PPLA2", "state": "MI", "county": "061", "population": 7970, "timezone": "America/Detroit"}, {"geonameid": 5370006, "name": "Mammoth Lakes", "asciiname": "Mammoth Lakes", "lat": 37.64855, "lon": -118.97208, "feature_code": "PPL", "state": "CA", "county": "051", "population": 7946, "timezone": "America/Los_Angeles"}, {"geonameid": 5710360, "name": "Winnemucca", "asciiname": "Winnemucca", "lat": 40.97296, "lon": -117.73568, "feature_code": "PPLA2", "state": "NV", "county": "013", "population": 7887, "timezone": "America/Los_Angeles"}, {"geonameid": 5545710, "name": "Richfield", "asciiname": "Richfield", "lat": 38.77247, "lon": -112.08409, "feature_code": "PPLA2", "state": "UT", "county": "041", "population": 7592, "timezone": "America/Denver"}, {"geonameid": 5697383, "name": "McCook", "asciiname": "McCook", "lat": 40.20195, "lon": -100.62571, "feature_code": "PPLA2", "state": "NE", "county": "145", "population": 7580, "timezone": "America/Chicago"}, {"geonameid": 5427957, "name": "Lamar", "asciiname": "Lamar", "lat": 38.08723, "lon": -102.62075, "feature_code": "PPLA2", "state": "CO", "county": "099", "population": 7555, "timezone": "America/Denver"}, {"geonameid": 5296013, "name": "Globe", "asciiname": "Globe", "lat": 33.39422, "lon": -110.7865, "feature_code": "PPLA2", "state": "AZ", "county": "007", "population": 7396, "timezone": "America/Phoenix"}, {"geonameid": 5058868, "name": "Devils Lake", "asciiname": "Devils Lake", "lat": 48.11278, "lon": -98.86512, "feature_code": "PPLA2", "state": "ND", "county": "071", "population": 7351, "timezone": "America/Chicago"}, {"geonameid": 4452137, "name": "Aberdeen", "asciiname": "Aberdeen", "lat": 35.13155, "lon": -79.42948, "feature_code": "PPL", "state": "NC", "county": "125", "population": 7343, "timezone": "America/New_York"}, {"geonameid": 5350039, "name": "Fort Bragg", "asciiname": "Fort Bragg", "lat": 39.44572, "lon": -123.80529, "feature_code": "PPL", "state": "CA", "county": "045", "population": 7289, "timezone": "America/Los_Angeles"}, {"geonameid": 4159839, "name": "Islamorada", "asciiname": "Islamorada", "lat": 24.9243, "lon": -80.62784, "feature_code": "PPL", "state": "FL", "county": "087", "population": 7131, "timezone": "America/New_York"}, {"geonameid": 4304232, "name": "Pikeville", "asciiname": "Pikeville", "lat": 37.47927, "lon": -82.51876, "feature_code": "PPLA2", "state": "KY", "county": "195", "population": 7012, "timezone": "America/New_York"}, {"geonameid": 4760376, "name": "Galax", "asciiname": "Galax", "lat": 36.66124, "lon": -80.92397, "feature_code": "PPLA2", "state": "VA", "county": "640", "population": 6914, "timezone": "America/New_York"}, {"geonameid": 4277752, "name": "Pratt", "asciiname": "Pratt", "lat": 37.64391, "lon": -98.73759, "feature_code": "PPLA2", "state": "KS", "county": "151", "population": 6849, "timezone": "America/Chicago"}, {"geonameid": 5562087, "name": "Crescent City", "asciiname": "Crescent City", "lat": 41.75595, "lon": -124.20175, "feature_code": "PPLA2", "state": "CA", "county": "015", "population": 6774, "timezone": "America/Los_Angeles"}, {"geonameid": 5750984, "name": "Seaside", "asciiname": "Seaside", "lat": 45.99316, "lon": -123.92264, "feature_code": "PPL", "state": "OR", "county": "007", "population": 6540, "timezone": "America/Los_Angeles"}, {"geonameid": 5823516, "name": "Douglas", "asciiname": "Douglas", "lat": 42.75969, "lon": -105.38221, "feature_code": "PPLA2", "state": "WY", "county": "009", "population": 6531, "timezone": "America/Denver"}, {"geonameid": 4676327, "name": "Bridgeport", "asciiname": "Bridgeport", "lat": 33.21012, "lon": -97.75476, "feature_code": "PPL", "state": "TX", "county": "497", "population": 6381, "timezone": "America/Chicago"}, {"geonameid": 5031404, "name": "International Falls", "asciiname": "International Falls", "lat": 48.60105, "lon": -93.41098, "feature_code": "PPLA2", "state": "MN", "county": "071", "population": 6158, "timezone": "America/Chicago"}, {"geonameid": 5495292, "name": "Truth or Consequences", "asciiname": "Truth or Consequences", "lat": 33.1284, "lon": -107.25281, "feature_code": "PPLA2", "state": "NM", "county": "051", "population": 6079, "timezone": "America/Denver"}, {"geonameid": 5424099, "name": "Gunnison", "asciiname": "Gunnison", "lat": 38.54582, "lon": -106.92532, "feature_code": "PPLA2", "state": "CO", "county": "051", "population": 6076, "timezone": "America/Denver"}, {"geonameid": 5516203, "name": "Alpine", "asciiname": "Alpine", "lat": 30.35862, "lon": -103.66206, "feature_code": "PPLA2", "state": "TX", "county": "043", "population": 5952, "timezone": "America/Chicago"}, {"geonameid": 5662162, "name": "Lewistown", "asciiname": "Lewistown", "lat": 47.06247, "lon": -109.42824, "feature_code": "PPLA2", "state": "MT", "county": "027", "population": 5874, "timezone": "America/Denver"}, {"geonameid": 5694163, "name": "Chadron", "asciiname": "Chadron", "lat": 42.82942, "lon": -102.99991, "feature_code": "PPLA2", "state": "NE", "county": "045", "population": 5775, "timezone": "America/Denver"}, {"geonameid": 4246595, "name": "Pana", "asciiname": "Pana", "lat": 39.38893, "lon": -89.08008, "feature_code": "PPL", "state": "IL", "county": "021", "population": 5607, "timezone": "America/Chicago"}, {"geonameid": 5070216, "name": "Holdrege", "asciiname": "Holdrege", "lat": 40.44029, "lon": -99.36982, "feature_code": "PPLA2", "state": "NE", "county": "137", "population": 5561, "timezone": "America/Chicago"}, {"geonameid": 5543853, "name": "Nephi", "asciiname": "Nephi", "lat": 39.71023, "lon": -111.83632, "feature_code": "PPLA2", "state": "UT", "county": "023", "population": 5560, "timezone": "America/Denver"}, {"geonameid": 4676032, "name": "Brady", "asciiname": "Brady", "lat": 31.13517, "lon": -99.33506, "feature_code": "PPLA2", "state": "TX", "county": "307", "population": 5549, "timezone": "America/Chicago"}, {"geonameid": 5654391, "name": "Glendive", "asciiname": "Glendive", "lat": 47.10529, "lon": -104.71246, "feature_code": "PPLA2", "state": "MT", "county": "021", "population": 5490, "timezone": "America/Denver"}, {"geonameid": 5843495, "name": "Worland", "asciiname": "Worland", "lat": 44.0169, "lon": -107.95537, "feature_code": "PPLA2", "state": "WY", "county": "043", "population": 5372, "timezone": "America/Denver"}, {"geonameid": 4501057, "name": "Cape May Court House", "asciiname": "Cape May Court House", "lat": 39.08261, "lon": -74.82378, "feature_code": "PPLA2", "state": "NJ", "county": "009", "population": 5338, "timezone": "America/New_York"}, {"geonameid": 5543307, "name": "Moab", "asciiname": "Moab", "lat": 38.57332, "lon": -109.54984, "feature_code": "PPLA2", "state": "UT", "county": "019", "population": 5235, "timezone": "America/Denver"}, {"geonameid": 5300830, "name": "Kayenta", "asciiname": "Kayenta", "lat": 36.72778, "lon": -110.25458, "feature_code": "PPL", "state": "AZ", "county": "017", "population": 5189, "timezone": "America/Denver"}, {"geonameid": 4901279, "name": "Marseilles", "asciiname": "Marseilles", "lat": 41.33087, "lon": -88.70813, "feature_code": "PPL", "state": "IL", "county": "099", "population": 4963, "timezone": "America/Chicago"}, {"geonameid": 4155533, "name": "Flagler Beach", "asciiname": "Flagler Beach", "lat": 29.47498, "lon": -81.127, "feature_code": "PPL", "state": "FL", "county": "035", "population": 4869, "timezone": "America/New_York"}, {"geonameid": 5805734, "name": "Omak", "asciiname": "Omak", "lat": 48.41099, "lon": -119.52755, "feature_code": "PPL", "state": "WA", "county": "047", "population": 4854, "timezone": "America/Los_Angeles"}, {"geonameid": 5790660, "name": "Colville", "asciiname": "Colville", "lat": 48.54657, "lon": -117.90554, "feature_code": "PPLA2", "state": "WA", "county": "065", "population": 4719, "timezone": "America/Los_Angeles"}, {"geonameid": 5445479, "name": "Goodland", "asciiname": "Goodland", "lat": 39.35083, "lon": -101.71017, "feature_code": "PPLA2", "state": "KS", "county": "181", "population": 4457, "timezone": "America/Denver"}, {"geonameid": 5541458, "name": "Kanab", "asciiname": "Kanab", "lat": 37.04749, "lon": -112.52631, "feature_code": "PPLA2", "state": "UT", "county": "025", "population": 4394, "timezone": "America/Denver"}, {"geonameid": 5583981, "name": "American Falls", "asciiname": "American Falls", "lat": 42.78602, "lon": -112.85444, "feature_code": "PPLA2", "state": "ID", "county": "077", "population": 4321, "timezone": "America/Boise"}, {"geonameid": 5710035, "name": "West Wendover", "asciiname": "West Wendover", "lat": 40.7391, "lon": -114.07335, "feature_code": "PPL", "state": "NV", "county": "007", "population": 4294, "timezone": "America/Los_Angeles"}, {"geonameid": 4964024, "name": "Farmington", "asciiname": "Farmington", "lat": 44.67062, "lon": -70.15117, "feature_code": "PPLA2", "state": "ME", "county": "007", "population": 4288, "timezone": "America/New_York"}, {"geonameid": 4683696, "name": "Cotulla", "asciiname": "Cotulla", "lat": 28.43693, "lon": -99.23503, "feature_code": "PPLA2", "state": "TX", "county": "283", "population": 4216, "timezone": "America/Chicago"}, {"geonameid": 5503694, "name": "Ely", "asciiname": "Ely", "lat": 39.24744, "lon": -114.88863, "feature_code": "PPLA2", "state": "NV", "county": "033", "population": 4134, "timezone": "America/Los_Angeles"}, {"geonameid": 4093488, "name": "Thomasville", "asciiname": "Thomasville", "lat": 31.91349, "lon": -87.73584, "feature_code": "PPL", "state": "AL", "county": "025", "population": 4051, "timezone": "America/Chicago"}, {"geonameid": 5528669, "name": "Presidio", "asciiname": "Presidio", "lat": 29.56074, "lon": -104.37215, "feature_code": "PPL", "state": "TX", "county": "377", "population": 3904, "timezone": "America/Chicago"}, {"geonameid": 5446450, "name": "Scott City", "asciiname": "Scott City", "lat": 38.48252, "lon": -100.90709, "feature_code": "PPLA2", "state": "KS", "county": "171", "population": 3838, "timezone": "America/Chicago"}, {"geonameid": 5436808, "name": "Rocky Ford", "asciiname": "Rocky Ford", "lat": 38.05251, "lon": -103.72023, "feature_code": "PPL", "state": "CO", "county": "089", "population": 3827, "timezone": "America/Denver"}, {"geonameid": 5535484, "name": "Blanding", "asciiname": "Blanding", "lat": 37.62433, "lon": -109.47966, "feature_code": "PPL", "state": "UT", "county": "037", "population": 3785, "timezone": "America/Denver"}, {"geonameid": 5259448, "name": "Lancaster", "asciiname": "Lancaster", "lat": 42.84749, "lon": -90.71068, "feature_code": "PPLA2", "state": "WI", "county": "043", "population": 3778, "timezone": "America/Chicago"}, {"geonameid": 4188377, "name": "Cleveland", "asciiname": "Cleveland", "lat": 34.59704, "lon": -83.76324, "feature_code": "PPLA2", "state": "GA", "county": "311", "population": 3773, "timezone": "America/New_York"}, {"geonameid": 5074259, "name": "O'Neill", "asciiname": "O'Neill", "lat": 42.45778, "lon": -98.64759, "feature_code": "PPLA2", "state": "NE", "county": "089", "population": 3653, "timezone": "America/Chicago"}, {"geonameid": 4183305, "name": "Blackshear", "asciiname": "Blackshear", "lat": 31.30605, "lon": -82.24207, "feature_code": "PPLA2", "state": "GA", "county": "229", "population": 3581, "timezone": "America/New_York"}, {"geonameid": 5767189, "name": "Mobridge", "asciiname": "Mobridge", "lat": 45.53722, "lon": -100.42791, "feature_code": "PPL", "state": "SD", "county": "129", "population": 3466, "timezone": "America/Chicago"}, {"geonameid": 5654320, "name": "Glasgow", "asciiname": "Glasgow", "lat": 48.19696, "lon": -106.63671, "feature_code": "PPLA2", "state": "MT", "county": "105", "population": 3414, "timezone": "America/Denver"}, {"geonameid": 5025627, "name": "Ely", "asciiname": "Ely", "lat": 47.90324, "lon": -91.86709, "feature_code": "PPL", "state": "MN", "county": "137", "population": 3408, "timezone": "America/Chicago"}, {"geonameid": 5517030, "name": "Big Lake", "asciiname": "Big Lake", "lat": 31.19154, "lon": -101.46039, "feature_code": "PPLA2", "state": "TX", "county": "383", "population": 3315, "timezone": "America/Chicago"}, {"geonameid": 5550996, "name": "Ajo", "asciiname": "Ajo", "lat": 32.37172, "lon": -112.86071, "feature_code": "PPL", "state": "AZ", "county": "019", "population": 3304, "timezone": "America/Phoenix"}, {"geonameid": 4107823, "name": "De Witt", "asciiname": "De Witt", "lat": 34.29288, "lon": -91.3379, "feature_code": "PPL", "state": "AR", "county": "001", "population": 3292, "timezone": "America/Chicago"}, {"geonameid": 5505321, "name": "Hawthorne", "asciiname": "Hawthorne", "lat": 38.52464, "lon": -118.62458, "feature_code": "PPLA2", "state": "NV", "county": "021", "population": 3269, "timezone": "America/Los_Angeles"}, {"geonameid": 5677433, "name": "Shelby", "asciiname": "Shelby", "lat": 48.50526, "lon": -111.85697, "feature_code": "PPLA2", "state": "MT", "county": "101", "population": 3268, "timezone": "America/Denver"}, {"geonameid": 5594474, "name": "Grangeville", "asciiname": "Grangeville", "lat": 45.92655, "lon": -116.12237, "feature_code": "PPLA2", "state": "ID", "county": "049", "population": 3155, "timezone": "America/Los_Angeles"}, {"geonameid": 5600363, "name": "McCall", "asciiname": "McCall", "lat": 44.91101, "lon": -116.09874, "feature_code": "PPL", "state": "ID", "county": "085", "population": 3106, "timezone": "America/Boise"}, {"geonameid": 5606275, "name": "Salmon", "asciiname": "Salmon", "lat": 45.17575, "lon": -113.8959, "feature_code": "PPLA2", "state": "ID", "county": "059", "population": 3036, "timezone": "America/Boise"}, {"geonameid": 5518214, "name": "Canadian", "asciiname": "Canadian", "lat": 35.91282, "lon": -100.38208, "feature_code": "PPLA2", "state": "TX", "county": "211", "population": 3013, "timezone": "America/Chicago"}, {"geonameid": 4984692, "name": "Bad Axe", "asciiname": "Bad Axe", "lat": 43.80196, "lon": -83.00078, "feature_code": "PPLA2", "state": "MI", "county": "063", "population": 3011, "timezone": "America/Detroit"}, {"geonameid": 5000625, "name": "Manistique", "asciiname": "Manistique", "lat": 45.95775, "lon": -86.24625, "feature_code": "PPLA2", "state": "MI", "county": "153", "population": 2982, "timezone": "America/Detroit"}, {"geonameid": 4959834, "name": "Calais", "asciiname": "Calais", "lat": 45.18376, "lon": -67.27662, "feature_code": "PPL", "state": "ME", "county": "029", "population": 2980, "timezone": "America/New_York"}, {"geonameid": 4481427, "name": "Nags Head", "asciiname": "Nags Head", "lat": 35.95739, "lon": -75.62406, "feature_code": "PPL", "state": "NC", "county": "055", "population": 2908, "timezone": "America/New_York"}, {"geonameid": 4997238, "name": "Iron River", "asciiname": "Iron River", "lat": 46.09273, "lon": -88.64235, "feature_code": "PPL", "state": "MI", "county": "071", "population": 2904, "timezone": "America/Menominee"}, {"geonameid": 5531255, "name": "Sonora", "asciiname": "Sonora", "lat": 30.56685, "lon": -100.64343, "feature_code": "PPLA2", "state": "TX", "county": "435", "population": 2863, "timezone": "America/Chicago"}, {"geonameid": 5700344, "name": "Valentine", "asciiname": "Valentine", "lat": 42.87278, "lon": -100.55097, "feature_code": "PPLA2", "state": "NE", "county": "031", "population": 2836, "timezone": "America/Chicago"}, {"geonameid": 4332518, "name": "Many", "asciiname": "Many", "lat": 31.56878, "lon": -93.48406, "feature_code": "PPLA2", "state": "LA", "county": "085", "population": 2790, "timezone": "America/Chicago"}, {"geonameid": 5716833, "name": "Burns", "asciiname": "Burns", "lat": 43.58626, "lon": -119.0541, "feature_code": "PPLA2", "state": "OR", "county": "025", "population": 2757, "timezone": "America/Los_Angeles"}, {"geonameid": 5465650, "name": "Dulce", "asciiname": "Dulce", "lat": 36.93362, "lon": -106.99893, "feature_code": "PPL", "state": "NM", "county": "039", "population": 2743, "timezone": "America/Denver"}, {"geonameid": 5829425, "name": "Kemmerer", "asciiname": "Kemmerer", "lat": 41.79245, "lon": -110.53767, "feature_code": "PPLA2", "state": "WY", "county": "023", "population": 2739, "timezone": "America/Denver"}, {"geonameid": 5043752, "name": "Roseau", "asciiname": "Roseau", "lat": 48.84609, "lon": -95.76277, "feature_code": "PPLA2", "state": "MN", "county": "135", "population": 2715, "timezone": "America/Chicago"}, {"geonameid": 5662190, "name": "Libby", "asciiname": "Libby", "lat": 48.38829, "lon": -115.556, "feature_code": "PPLA2", "state": "MT", "county": "053", "population": 2645, "timezone": "America/Denver"}, {"geonameid": 5558829, "name": "Alturas", "asciiname": "Alturas", "lat": 41.48714, "lon": -120.54349, "feature_code": "PPLA2", "state": "CA", "county": "049", "population": 2594, "timezone": "America/Los_Angeles"}, {"geonameid": 5274034, "name": "Spooner", "asciiname": "Spooner", "lat": 45.82245, "lon": -91.88934, "feature_code": "PPL", "state": "WI", "county": "129", "population": 2586, "timezone": "America/Chicago"}, {"geonameid": 5144375, "name": "Whitehall", "asciiname": "Whitehall", "lat": 43.55562, "lon": -73.40372, "feature_code": "PPL", "state": "NY", "county": "115", "population": 2582, "timezone": "America/New_York"}, {"geonameid": 5273224, "name": "Silver Lake", "asciiname": "Silver Lake", "lat": 44.05526, "lon": -89.22623, "feature_code": "PPL", "state": "WI", "county": "137", "population": 2480, "timezone": "America/Chicago"}, {"geonameid": 5513795, "name": "Tonopah", "asciiname": "Tonopah", "lat": 38.06716, "lon": -117.23008, "feature_code": "PPLA2", "state": "NV", "county": "023", "population": 2478, "timezone": "America/Los_Angeles"}, {"geonameid": 4271159, "name": "Eureka", "asciiname": "Eureka", "lat": 37.82392, "lon": -96.28917, "feature_code": "PPLA2", "state": "KS", "county": "073", "population": 2450, "timezone": "America/Chicago"}, {"geonameid": 5441199, "name": "Telluride", "asciiname": "Telluride", "lat": 37.93749, "lon": -107.81229, "feature_code": "PPLA2", "state": "CO", "county": "113", "population": 2399, "timezone": "America/Denver"}, {"geonameid": 4287235, "name": "Cave City", "asciiname": "Cave City", "lat": 37.13672, "lon": -85.95692, "feature_code": "PPL", "state": "KY", "county": "009", "population": 2394, "timezone": "America/Chicago"}, {"geonameid": 5226824, "name": "Chamberlain", "asciiname": "Chamberlain", "lat": 43.81083, "lon": -99.33066, "feature_code": "PPLA2", "state": "SD", "county": "015", "population": 2386, "timezone": "America/Chicago"}, {"geonameid": 4434720, "name": "Magnolia", "asciiname": "Magnolia", "lat": 31.14323, "lon": -90.45871, "feature_code": "PPLA2", "state": "MS", "county": "113", "population": 2371, "timezone": "America/Chicago"}, {"geonameid": 5072532, "name": "Madison", "asciiname": "Madison", "lat": 41.82834, "lon": -97.45505, "feature_code": "PPLA2", "state": "NE", "county": "119", "population": 2371, "timezone": "America/Chicago"}, {"geonameid": 4740482, "name": "Weimar", "asciiname": "Weimar", "lat": 29.70301, "lon": -96.78053, "feature_code": "PPL", "state": "TX", "county": "089", "population": 2161, "timezone": "America/Chicago"}, {"geonameid": 4112430, "name": "Glenwood", "asciiname": "Glenwood", "lat": 34.32677, "lon": -93.55074, "feature_code": "PPL", "state": "AR", "county": "109", "population": 2141, "timezone": "America/Chicago"}, {"geonameid": 5526145, "name": "Memphis", "asciiname": "Memphis", "lat": 34.72478, "lon": -100.53401, "feature_code": "PPLA2", "state": "TX", "county": "191", "population": 2138, "timezone": "America/Chicago"}, {"geonameid": 5050290, "name": "Tracy", "asciiname": "Tracy", "lat": 44.23329, "lon": -95.61918, "feature_code": "PPL", "state": "MN", "county": "083", "population": 2117, "timezone": "America/Chicago"}, {"geonameid": 5058233, "name": "Belcourt", "asciiname": "Belcourt", "lat": 48.83917, "lon": -99.74487, "feature_code": "PPL", "state": "ND", "county": "079", "population": 2078, "timezone": "America/Chicago"}, {"geonameid": 5597606, "name": "Kellogg", "asciiname": "Kellogg", "lat": 47.53826, "lon": -116.11933, "feature_code": "PPL", "state": "ID", "county": "079", "population": 2069, "timezone": "America/Los_Angeles"}, {"geonameid": 5367846, "name": "Lone Pine", "asciiname": "Lone Pine", "lat": 36.60626, "lon": -118.06462, "feature_code": "PPL", "state": "CA", "county": "027", "population": 2035, "timezone": "America/Los_Angeles"}, {"geonameid": 5292912, "name": "Dolan Springs", "asciiname": "Dolan Springs", "lat": 35.59194, "lon": -114.27329, "feature_code": "PPL", "state": "AZ", "county": "015", "population": 2033, "timezone": "America/Phoenix"}, {"geonameid": 4403182, "name": "Piedmont", "asciiname": "Piedmont", "lat": 37.15449, "lon": -90.69567, "feature_code": "PPL", "state": "MO", "county": "223", "population": 1977, "timezone": "America/Chicago"}, {"geonameid": 4736721, "name": "Three Rivers", "asciiname": "Three Rivers", "lat": 28.46027, "lon": -98.18251, "feature_code": "PPL", "state": "TX", "county": "297", "population": 1971, "timezone": "America/Chicago"}, {"geonameid": 4997086, "name": "Indian River", "asciiname": "Indian River", "lat": 45.41251, "lon": -84.61254, "feature_code": "PPL", "state": "MI", "county": "031", "population": 1959, "timezone": "America/Detroit"}, {"geonameid": 5532924, "name": "Van Horn", "asciiname": "Van Horn", "lat": 31.04029, "lon": -104.83073, "feature_code": "PPLA2", "state": "TX", "county": "109", "population": 1928, "timezone": "America/Chicago"}, {"geonameid": 5428504, "name": "Limon", "asciiname": "Limon", "lat": 39.26388, "lon": -103.69217, "feature_code": "PPL", "state": "CO", "county": "073", "population": 1911, "timezone": "America/Denver"}, {"geonameid": 5079887, "name": "Superior", "asciiname": "Superior", "lat": 40.02085, "lon": -98.07004, "feature_code": "PPL", "state": "NE", "county": "129", "population": 1884, "timezone": "America/Chicago"}, {"geonameid": 5705957, "name": "Lovelock", "asciiname": "Lovelock", "lat": 40.17935, "lon": -118.47348, "feature_code": "PPLA2", "state": "NV", "county": "027", "population": 1878, "timezone": "America/Los_Angeles"}, {"geonameid": 5758413, "name": "Vale", "asciiname": "Vale", "lat": 43.98211, "lon": -117.23823, "feature_code": "PPLA2", "state": "OR", "county": "045", "population": 1833, "timezone": "America/Boise"}, {"geonameid": 5030242, "name": "Hinckley", "asciiname": "Hinckley", "lat": 46.01134, "lon": -92.94437, "feature_code": "PPL", "state": "MN", "county": "115", "population": 1806, "timezone": "America/Chicago"}, {"geonameid": 5455775, "name": "Arroyo Seco", "asciiname": "Arroyo Seco", "lat": 36.51669, "lon": -105.56918, "feature_code": "PPL", "state": "NM", "county": "055", "population": 1785, "timezone": "America/Denver"}, {"geonameid": 5394279, "name": "Seeley", "asciiname": "Seeley", "lat": 32.79311, "lon": -115.69111, "feature_code": "PPL", "state": "CA", "county": "025", "population": 1739, "timezone": "America/Los_Angeles"}, {"geonameid": 4227871, "name": "Union Point", "asciiname": "Union Point", "lat": 33.61568, "lon": -83.0746, "feature_code": "PPL", "state": "GA", "county": "133", "population": 1709, "timezone": "America/New_York"}, {"geonameid": 4152395, "name": "Cross City", "asciiname": "Cross City", "lat": 29.63465, "lon": -83.12694, "feature_code": "PPLA2", "state": "FL", "county": "029", "population": 1707, "timezone": "America/New_York"}, {"geonameid": 4064664, "name": "Gordo", "asciiname": "Gordo", "lat": 33.32012, "lon": -87.9028, "feature_code": "PPL", "state": "AL", "county": "107", "population": 1687, "timezone": "America/Chicago"}, {"geonameid": 5312677, "name": "Salome", "asciiname": "Salome", "lat": 33.78114, "lon": -113.61465, "feature_code": "PPL", "state": "AZ", "county": "012", "population": 1530, "timezone": "America/Phoenix"}, {"geonameid": 4108950, "name": "Dover", "asciiname": "Dover", "lat": 35.40147, "lon": -93.11434, "feature_code": "PPL", "state": "AR", "county": "115", "population": 1398, "timezone": "America/Chicago"}, {"geonameid": 5266764, "name": "Phillips", "asciiname": "Phillips", "lat": 45.69663, "lon": -90.40043, "feature_code": "PPLA2", "state": "WI", "county": "099", "population": 1388, "timezone": "America/Chicago"}, {"geonameid": 5052600, "name": "Wheaton", "asciiname": "Wheaton", "lat": 45.80441, "lon": -96.49923, "feature_code": "PPLA2", "state": "MN", "county": "155", "population": 1362, "timezone": "America/Chicago"}, {"geonameid": 5685767, "name": "West Yellowstone", "asciiname": "West Yellowstone", "lat": 44.66215, "lon": -111.10411, "feature_code": "PPL", "state": "MT", "county": "031", "population": 1339, "timezone": "America/Denver"}, {"geonameid": 4713452, "name": "Munday", "asciiname": "Munday", "lat": 33.44926, "lon": -99.62286, "feature_code": "PPL", "state": "TX", "county": "275", "population": 1339, "timezone": "America/Chicago"}, {"geonameid": 5028500, "name": "Grand Marais", "asciiname": "Grand Marais", "lat": 47.75045, "lon": -90.33427, "feature_code": "PPLA2", "state": "MN", "county": "031", "population": 1327, "timezone": "America/Chicago"}, {"geonameid": 5731035, "name": "Heppner", "asciiname": "Heppner", "lat": 45.35318, "lon": -119.5578, "feature_code": "PPLA2", "state": "OR", "county": "049", "population": 1287, "timezone": "America/Los_Angeles"}, {"geonameid": 5058568, "name": "Cavalier", "asciiname": "Cavalier", "lat": 48.79388, "lon": -97.62231, "feature_code": "PPLA2", "state": "ND", "county": "067", "population": 1244, "timezone": "America/Chicago"}, {"geonameid": 5766453, "name": "Lemmon", "asciiname": "Lemmon", "lat": 45.94083, "lon": -102.15932, "feature_code": "PPL", "state": "SD", "county": "105", "population": 1232, "timezone": "America/Denver"}, {"geonameid": 5292715, "name": "Dilkon", "asciiname": "Dilkon", "lat": 35.38529, "lon": -110.32068, "feature_code": "PPL", "state": "AZ", "county": "017", "population": 1184, "timezone": "America/Denver"}, {"geonameid": 12523068, "name": "Death Valley", "asciiname": "Death Valley", "lat": 36.23962, "lon": -116.81133, "feature_code": "PPL", "state": "CA", "county": "027", "population": 1124, "timezone": "America/Los_Angeles"}, {"geonameid": 4923796, "name": "Morocco", "asciiname": "Morocco", "lat": 40.94615, "lon": -87.45336, "feature_code": "PPL", "state": "IN", "county": "111", "population": 1119, "timezone": "America/Chicago"}, {"geonameid": 5499105, "name": "Alamo", "asciiname": "Alamo", "lat": 37.36496, "lon": -115.16446, "feature_code": "PPL", "state": "NV", "county": "017", "population": 1080, "timezone": "America/Los_Angeles"}, {"geonameid": 4467757, "name": "Gaston", "asciiname": "Gaston", "lat": 36.50043, "lon": -77.64498, "feature_code": "PPL", "state": "NC", "county": "131", "population": 1067, "timezone": "America/New_York"}, {"geonameid": 5007585, "name": "Roscommon", "asciiname": "Roscommon", "lat": 44.49835, "lon": -84.59197, "feature_code": "PPLA2", "state": "MI", "county": "143", "population": 1061, "timezone": "America/Detroit"}, {"geonameid": 5766888, "name": "Martin", "asciiname": "Martin", "lat": 43.1725, "lon": -101.73265, "feature_code": "PPLA2", "state": "SD", "county": "007", "population": 1061, "timezone": "America/Denver"}, {"geonameid": 5676740, "name": "Scobey", "asciiname": "Scobey", "lat": 48.79252, "lon": -105.42083, "feature_code": "PPLA2", "state": "MT", "county": "019", "population": 1033, "timezone": "America/Denver"}, {"geonameid": 4813774, "name": "Marlinton", "asciiname": "Marlinton", "lat": 38.22345, "lon": -80.09451, "feature_code": "PPLA2", "state": "WV", "county": "075", "population": 1029, "timezone": "America/New_York"}, {"geonameid": 5662396, "name": "Lincoln", "asciiname": "Lincoln", "lat": 46.95494, "lon": -112.68171, "feature_code": "PPL", "state": "MT", "county": "049", "population": 1013, "timezone": "America/Denver"}, {"geonameid": 5476526, "name": "Logan", "asciiname": "Logan", "lat": 35.36533, "lon": -103.41079, "feature_code": "PPL", "state": "NM", "county": "037", "population": 966, "timezone": "America/Denver"}, {"geonameid": 4846948, "name": "Anita", "asciiname": "Anita", "lat": 41.44526, "lon": -94.7647, "feature_code": "PPL", "state": "IA", "county": "029", "population": 956, "timezone": "America/Chicago"}, {"geonameid": 5707081, "name": "Owyhee", "asciiname": "Owyhee", "lat": 41.94768, "lon": -116.09871, "feature_code": "PPL", "state": "NV", "county": "007", "population": 953, "timezone": "America/Los_Angeles"},